"id","name","createDate","category","lon","lat"
8225,"One And All",2016-06-14,"atm",-5.53289830684662,50.1220639499942
42,"Belle Modeste",2014-04-11,"default",24.9390492,60.1605345
15,"Slaters Meats",2014-03-07,"grocery",-123.3124115,48.4377466
33,"kaktusy eshop",2015-01-24,"default",14.3588965,50.0658333
3,"Pembury Tavern",2013-06-09,"food",-0.0593789,51.5493776
4,"Tietokonekauppa",2014-12-06,"shopping",22.2818123,60.4456862
5,"Bandholm Hotel",2013-04-14,"lodging",11.4862062,54.8370236
8,"SierraHosts.net",2013-12-11,"default",-121.0165666,39.2615749
7,"Helkan Baari",2014-04-30,"nightlife",24.927098,60.169775
10,"Costa Rica Travel Market LLC",2014-01-11,"default",-104.9362682,39.7146512
9,"Bio Oko",2014-12-19,"attraction",14.4299522,50.0999576
12,"MIT Coop",2014-09-05,"shopping",-71.0863982,42.3626795
11,"SurajShkathi",2013-12-28,"default",80.2507557,13.052391
14,"The Dubliner",2014-06-07,"food",12.5789419,55.6786451
6,"Deborah Hodgson Vamp Couture",2013-11-28,"default",-122.4504132,37.7705183
16,"Coalheavers Arms",2013-06-09,"food",-0.2457512,52.5621339
17,"Monomatapa Hotel",2014-11-26,"lodging",31.0469154,-17.825695
18,"E. S. LES ALEGRIES",2015-02-18,"transport",2.830864,41.713569
19,"Pizzeria OroStube",2014-12-19,"food",11.1504525,46.0647594
20,"StarBikes Rental",2015-01-22,"transport",4.9080895,52.3774607
21,"Electronic Tour Guide Rental Point, Art Elephants souvenir & gift shop",2014-07-26,"default",14.4169321,50.0859427
22,"Romana Dvoráková",2013-12-14,"default",12.8808408,50.2330492
23,"Locus Workspace - Slezská | Coworkingové centrum",2013-10-22,"default",14.4519789,50.0763866
27,"STARSKY DIGITAL AGENCY",2013-12-09,"default",14.4191508,50.0816786
28,"GOURMETKAVA.CZ (výdejní místo na vyžádání emailem)",2014-01-02,"default",14.4629394,50.0777622
31,"Salva_Quardia",2014-05-12,"default",17.2932786,49.6142365
34,"Studio Najbrt",2015-04-02,"default",14.3983579,50.0669199
35,"Jeli-design | Interiérový design",2013-12-12,"shopping",14.4747797,50.1092795
36,"HUG BikeShop",2015-03-23,"shopping",24.9259094,60.1623144
37,"The Port Royal",2014-03-01,"food",-3.526299,50.7156495
38,"Hard Rock Café",2014-11-06,"food",-3.6895592,40.4262919
39,"Petit Palace President Castellana",2014-11-06,"lodging",-3.6881547,40.4292318
40,"Alice Homemade",2014-03-17,"food",4.4544669,50.8687731
41,"Room 77",2013-04-14,"food",13.4179531,52.493019
258,"Nin Com Soup",2015-01-22,"food",-0.0876143,51.5255775
29,"Justiz-Caps",2014-01-08,"default",14.4534252,50.0950734
1,"Devonshire Arms",2013-06-09,"food",0.1390513,52.1989253
2,"Port Stephens Motor Lodge",2014-10-02,"lodging",152.150097,-32.7187665
8226,"Stack-Tech Computer Repair",2016-06-15,"shopping",-86.3466274738312,40.7525644171388
3928,"Nova Rosti",2014-05-09,"cafe",-122.499287,37.9580745
8865,"Advanced Computing ltd",2016-11-21,"default",23.0456256866455,40.3225161001552
46,"Härtekrug",2015-03-30,"food",9.7168731,52.3670914
47,"Identitätsstiftung GmbH",2015-05-06,"default",9.7350293,52.3702884
50,"Columbus Worship Center",2013-12-03,"default",-83.0055556,39.9863889
49,"Bobby Burger",2014-12-10,"atm",21.0032264,52.2313715
51,"Saint John The Evangelist Roman Catholic Church",2013-11-02,"default",-74.325,41.4047222
52,"Dezins Interactive",2013-11-26,"default",-91.0684555,30.4094827
53,"Mill Creek Community Church",2013-11-27,"default",-94.8606,38.9859
54,"Color-Glide ColorGlidePro.com - paint brush replacement  product",2013-11-21,"default",-117.7114158,33.608786
55,"Saint Petersburg Museum of History",2014-08-22,"attraction",-82.6305988,27.773935
56,"Law Office of Michael McLees",2014-04-11,"default",-98.5687186,29.5241688
60,"Laundry Locker Kiosk",2014-08-30,"shopping",-122.4234775,37.7949855
61,"Snakes & Lattes",2014-06-24,"cafe",-79.4130037,43.6647999
58,"<U+C81C><U+C0DD><U+D55C><U+C758><U+C6D0> (Jesaeng Oriental Medicine Clinic)",2014-09-16,"default",126.457458,36.782283
65,"Skunk Funk",2015-01-07,"shopping",-122.4223164,37.7678512
48,"Pet Camp Cat Safari",2015-01-09,"default",-122.4461924,37.7882789
62,"Yogarte",2013-07-19,"sports",9.1394098,45.4752538
63,"Ana's on the beach",2014-11-11,"food",-61.8495595,17.1565111
73,"Cyclepath",2015-01-08,"shopping",-122.318096,37.5555738
57,"Grossman's Tavern",2014-06-13,"nightlife",-79.3989471,43.6560303
67,"The Birds Nest",2014-01-20,"food",-0.0226612,51.4761795
68,"FreeJobz Amsterdam",2013-12-15,"default",4.8917775,52.3655461
69,"Tamoil",2014-05-30,"transport",8.3190782,46.2065817
70,"Vlasové studio Petra Nowaková",2015-02-19,"shopping",17.2422572,49.5946604
71,"AntiRadary.NET s.r.o.",2014-07-08,"default",14.3718615,50.0996098
72,"Gappa Solutions s.r.o.",2014-11-13,"default",17.2817969,49.6063251
76,"iTek Graphics",2014-07-15,"default",-80.8215111,35.2743463
74,"snackbar ""De Hoefslag""",2013-11-05,"food",5.3636061,52.160142
79,"Saim Orchid Japanese Restaraunt",2014-05-30,"food",-80.611025,28.333289
78,"Pi-nuts",2015-04-02,"nightlife",3.7254069,51.0435838
82,"Thai Kitchen",2014-04-12,"food",-97.7416594,30.2967459
80,"Mansion Hill Veterinary Practice",2014-11-19,"default",-1.2759528,52.0717185
84,"Brooklyn Flea",2015-04-24,"shopping",-73.9692312,40.6873932
83,"Le Gros Bar",2014-11-28,"nightlife",0.691889,47.3961491
85,"Krust Bakery",2015-05-06,"grocery",-6.264294,53.3436522
66,"Polyester Books",2013-11-09,"shopping",144.978844,-37.79726
44,"Das kleine Museum",2015-01-27,"food",9.7074453,52.3723322
9060,"KAMRAN CHATTHA",2016-12-30,"default",72.9191994667053,31.7467994213077
9061,"KAMRAN CHATTHA",2016-12-30,"default",72.9194784164429,31.7519997301077
86,"Computel",2014-10-02,"default",7.7508834,45.1075649
88,"Viofarm",2014-05-30,"default",23.0132835,45.8489973
89,"Grow",2013-10-23,"grocery",8.6500972,49.8696994
90,"Tacoteca",2014-03-04,"food",7.5865613,47.5489872
91,"Jodie's Kitchen Cooking School",2013-11-06,"attraction",121.5745838,25.0181253
105,"Sandman Hotel & Suites Winnipeg Airport",2014-07-17,"lodging",-97.2038827,49.897371
95,"DiegoDev Group",2014-02-13,"default",-117.227693,32.94998
96,"Ares Armor",2013-12-11,"default",-117.3788832,33.1967248
97,"Heritage Senior Care",2013-12-29,"default",-117.348439,33.164004
98,"Invincible Creative",2014-05-02,"default",-117.188709,32.76434
99,"Villalobos SD",2013-12-05,"default",-117.2529544,32.7959837
101,"Computer and Ink Store",2014-10-11,"default",-117.243776,32.799441
102,"San Marcos Dental Center",2013-12-05,"default",-117.2003136,33.1471342
14375,"<U+03A4>apetsa<U+03C1><U+03AF>e<U+03C2> a<U+03C5>t<U+03BF><U+03BA><U+03B9><U+03BD><U+03AE>t<U+03C9><U+03BD> - <U+039A><U+0391><U+03A1><U+0391><U+039C><U+03A0><U+0395><U+03A1><U+0397>S <U+03A7><U+03A1><U+0397>S<U+03A4><U+039F>S",2018-07-04,"default",22.9201626777649,40.6474989301615
124,"Chens Hunam Chinese Restaurant",2014-03-21,"food",-96.6091199,39.1922528
17073,"AZIENDA AGRICOLA FORTUNATO",2019-03-07,"food",12.5646364688873,42.0005244739606
107,"Sandman Hotel Vancouver City Centre",2014-07-17,"lodging",-123.1129606,49.2788858
106,"Oscar Lounge",2015-04-25,"food",6.9611641,50.9369979
108,"Waves Coffee House",2013-08-23,"cafe",-123.1224892,49.2807244
9062,"KAMRAN CHATTHA",2016-12-30,"default",72.9114103317261,31.7588235518399
94,"Great Wall Express",2014-04-13,"food",-97.8533226,30.5499212
9063,"KAMRAN CHATTHA",2016-12-30,"default",72.9173648357391,31.7580390203886
112,"Royal Bohemian Crystal",2013-11-19,"default",15.2702063,50.6973488
113,"Clink 261",2014-03-05,"lodging",-0.1200706,51.5290096
114,"realraum",2014-08-11,"default",15.4505767,47.0655785
115,"Camping Dalen",2014-07-07,"shopping",8.0075507,59.4445706
116,"Himalayan People",2013-12-02,"default",-0.088663,51.5271838
117,"Xcovers.cz",2014-12-13,"default",16.1059363,50.2433201
118,"Dionysos",2013-12-28,"food",18.0850366,59.3135253
119,"Cafè Guldhornene",2015-03-17,"nightlife",12.5691017,55.6771501
120,"Heidi's Bier Bar",2015-03-17,"nightlife",12.5694568,55.6773855
121,"Utopia Bar & Restaurant",2014-06-06,"food",102.1401794,19.8881185
122,"CA Radost",2014-03-08,"default",17.9193025,49.9174351
123,"CeX",2014-10-26,"default",-0.1343142,51.5176692
9064,"KAMRAN CHATTHA",2016-12-30,"default",72.8915405273437,31.7713751506284
125,"Juniorbit Sas - Informatica",2014-01-21,"default",9.1370482,45.5019349
127,"Sushibar Satzuma",2014-07-12,"food",18.053015,59.2961262
87,"Alchymista",2014-01-10,"cafe",14.4171779,50.1008874
92,"Sandman Hotel & Suites Calgary West",2014-07-17,"lodging",-114.2085113,51.0851087
9065,"KAMRAN CHATTHA",2016-12-30,"default",72.8489685058594,31.7223266802243
129,"Chaos Cowork Cluj",2014-10-11,"default",23.5898366,46.7716796
135,"Benjamin Sports Inc.",2014-08-26,"default",-79.3423214,43.6931896
132,"J. H. Mann - Fishmonger",2014-04-23,"grocery",-1.497067,53.3675802
133,"The Brooklyn Café",2014-01-14,"cafe",-4.2796174,55.8318061
134,"Farmàcia Simon Bombi",2015-05-24,"default",2.8198917,41.9761838
163,"Sandman Hotel & Suites Kelowna",2014-07-17,"lodging",-119.440302,49.8824414
136,"Gästehof Apolony",2014-01-08,"lodging",10.7680096,53.7678697
137,"Chalupa Komnátka",2013-11-26,"lodging",16.8796875,50.0180775
9066,"KAMRAN CHATTHA",2016-12-30,"default",73.0680084228516,31.8256484960194
139,"Vegemesta",2014-07-13,"food",23.7547799,61.4991966
140,"University of Cumbria Ambleside Campus",2014-05-30,"attraction",-2.9642364,54.4358207
142,"Burgcafé",2015-01-30,"cafe",13.4704152,48.5774555
143,"Tian Restaurant",2014-11-17,"food",16.3745292,48.2052633
145,"400 Beach Seafood",2014-12-16,"food",-82.631548,27.777371
146,"Ferg's Sports Bar & Grill",2014-08-23,"food",-82.6523574,27.7709052
154,"Mama Rosa Rotisserie & Grill",2014-03-29,"food",-76.4505536,39.3475198
147,"Detské Centrum Hobík (školka, kroužky)",2013-11-27,"attraction",14.3165338,49.9335938
148,"gobit.cz - umožnuje prijímat platby v bitcoinech",2013-11-28,"default",14.2364788,49.9208226
149,"Primaleva Massage",2014-04-01,"default",11.9017638,57.6549895
150,"Filmhuis Cavia",2014-04-03,"attraction",4.8703456,52.3819756
151,"Dolce Vita",2013-08-01,"food",74.5905907,42.8431935
152,"Lago delle Rose",2014-07-01,"food",8.4027712,45.9763815
159,"Macy's",2014-03-13,"shopping",-74.5519558,40.9076669
156,"Hawsib Information Technologies",2014-04-26,"shopping",35.2243887,31.7125521
157,"Adana Grill",2013-11-09,"food",6.1510963,51.3677106
158,"Joseph Grill",2013-11-09,"food",6.1511367,51.3674702
160,"Lord & Taylor",2014-03-13,"shopping",-74.5552585,40.9073762
165,"China City",2014-03-18,"food",-82.3995584,28.1000502
161,"De Nieuwe Winkel",2014-10-15,"food",5.8688296,51.8453363
162,"Subway",2013-11-09,"food",37.5202352,55.9317618
164,"Sun of A Gun",2014-04-29,"default",-75.7115951,45.4001728
170,"http://www.themodernshop.ca/",2014-03-08,"default",-75.6939621,45.4264515
171,"Counterbalance Bicycles",2014-04-09,"shopping",-122.2958156,47.6648179
166,"CeX Cardiff",2014-12-04,"default",-3.1787073,51.4767866
167,"Progressbar",2013-04-13,"default",17.1065474,48.1442725
168,"U Malíru",2015-04-15,"food",14.4053181,50.0864594
169,"QWERTZ",2014-11-28,"nightlife",6.6340684,46.5183958
131,"Rooted Kava Bar",2014-06-05,"nightlife",-117.1297638,32.7478087
130,"Grumpy's Green",2014-01-18,"nightlife",144.983027,-37.80524
128,"Michal Photo",2014-01-03,"default",-6.1327079,53.284784
173,"Andrago Winery",2014-10-08,"default",14.4503536,49.7808809
175,"John Landot",2013-07-06,"shopping",2.2443054,48.8431028
189,"Sandman Hotel Castlegar",2014-07-17,"lodging",-117.6555992,49.296331
180,"Pacific Tradewinds Hostel",2013-04-14,"lodging",-122.4042094,37.7937071
179,"soon bitcoinkiosk.ch",2014-03-05,"default",17.016939,51.0859286
183,"Bamboo Bistro North",2014-04-12,"food",-97.7196383,30.3958149
181,"Farmacia Optica Agostini",2014-05-25,"default",-58.0425912,-34.8662606
182,"Ulrich Buhmann",2013-11-26,"shopping",10.1798307,47.9860263
185,"Bombay Bistro",2014-04-12,"food",-97.7474271,30.3986564
184,"brmlab",2013-03-03,"default",14.4359065,50.0984671
194,"The Ale and the Witch",2014-11-24,"food",-82.633613,27.773918
187,"EcoHotel Gora",2014-12-11,"lodging",27.8294873,42.7621292
193,"Euro Flowers",2015-03-21,"shopping",-79.5876526,43.5495948
190,"Bohne",2014-12-15,"cafe",9.7064773,52.3739428
192,"CeX Glasgow Sauchiehall",2014-08-18,"default",-4.2627761,55.8654691
215,"Sandman Hotel & Suites Calgary South",2014-07-17,"lodging",-114.0452219,50.9815732
199,"King Wok",2014-04-01,"food",-94.4175927,39.0408505
195,"Area di Servizio Petrol-Airport",2015-02-12,"transport",11.1230431,46.0384428
197,"Nick's Cafe",2015-04-20,"food",-61.415486,10.556875
198,"Affittacamere B&B Cagliari Novecento",2014-12-12,"lodging",9.1111319,39.2160131
201,"Mama Garden",2014-04-01,"food",-94.4160484,39.0402008
200,"Bofinn",2014-11-06,"food",-3.6835198,40.4351252
14683,"KriptoBR",2018-08-20,"shopping",-46.6600996255875,-23.5580422180441
202,"Tamero",2014-11-06,"food",-3.6865757,40.4365907
203,"La Úrsula",2014-06-20,"food",-3.6865518,40.437361
204,"La Taberna",2014-11-06,"food",-3.6865027,40.437451
205,"La Armonia",2014-11-06,"food",-3.6848207,40.4361646
206,"Mesón 5Jotas",2014-11-06,"food",-3.6862478,40.4361971
207,"Ori",2014-11-06,"food",-3.6861892,40.4364074
208,"El Séptimo",2014-11-06,"food",-3.6849646,40.4351692
209,"El Asador de Aranda",2014-11-06,"food",-3.6844928,40.4352013
211,"do you space",2014-08-03,"default",13.4581799,52.5177555
212,"Fahrradküche Graz",2014-06-22,"shopping",15.4423455,47.063834
213,"Tricky Tunes",2013-10-04,"shopping",13.462218,52.5133689
214,"Helsinki Shooting Club",2014-08-27,"default",24.9327511,60.1645366
172,"Stage West",2014-07-17,"lodging",-79.6311358,43.6422697
176,"Doctor Recommended",2013-11-30,"attraction",-119.504094,49.8807247
177,"Moe's Original Bar B Que",2014-10-11,"food",-105.2539748,39.9991059
8227,"L'atelier de l'éphémère",2016-06-15,"default",2.36894845962524,48.8293565716664
9528,"Stadler Völkel Rechtsanwälte",2017-03-02,"default",16.3740867376328,48.2046409519133
219,"Organica: Garden Supply & Hydroponics",2014-06-11,"default",-73.784384,42.6402694
221,"Red Door Movie Rental",2014-11-08,"default",-122.1479633,37.4269015
222,"VeggieGalaxy",2013-05-01,"food",-71.1011293,42.3636635
226,"The Bicycle Stable",2014-12-18,"shopping",-75.1345113,39.9724031
227,"Thai Passion - Downtown",2014-04-12,"food",-97.7428345,30.2689156
318,"Bergasthof Plörr",2014-03-26,"lodging",11.4136741,46.5637114
223,"Drogheria Micheli",2015-02-10,"grocery",11.0439284,45.888989
224,"Silver Moon",2014-02-28,"shopping",17.1188022,48.1471429
225,"Hotel van Walsum",2014-02-14,"lodging",4.4643255,51.9151473
228,"Green Tea Sushi Bar",2014-03-21,"food",-96.5740607,39.1850563
230,"Mariner's Inn",2014-01-02,"lodging",-121.1120376,35.572302
232,"Netsville",2013-12-30,"default",-77.6189344,43.1550576
229,"Callejón de Serrano",2014-09-04,"nightlife",-3.6872715,40.4326692
242,"Rooks Comics and Games",2013-10-30,"shopping",-111.0740236,45.6723056
244,"Pie Hole",2014-01-06,"food",-111.8885341,40.7616461
233,"Rechtsanwalt Daniel Dietrich",2013-11-08,"default",7.924502,53.2588316
234,"M & M Hair and Beauty",2014-10-27,"default",-0.3323122,51.5821466
235,"CeX Harrow",2014-12-04,"default",-0.3323591,51.5821146
236,"Whitespace",2015-02-20,"default",3.7326004,51.0597214
237,"5 voor 12",2015-04-02,"nightlife",3.7215045,51.0547053
238,"Pattaya Beer Garden",2014-03-04,"food",100.874346,12.9280252
240,"MBR Architettura",2013-07-19,"default",9.1061094,45.4609305
247,"Unleaded Group",2014-12-09,"default",-104.9871359,39.7548245
243,"Friesenkate",2014-01-03,"food",8.6083517,54.315705
245,"3 Amigos",2014-01-18,"food",-6.1011288,53.2039061
246,"Cafe & Bar Diesels",2014-05-29,"cafe",16.3951162,48.191622
248,"Porto Pirata",2014-07-08,"food",-58.3732278,-34.596169
218,"The French Press Cafe & Creperie",2014-02-10,"cafe",-73.7504154,42.6540939
250,"EDA Milano",2014-05-27,"food",9.2210821,45.4797273
253,"Two Brothers BBQ Woodlawn",2014-03-28,"food",-97.2617458,37.7510094
254,"Pho Thaison Vietnamese Cuisine",2014-04-12,"food",-97.7329828,30.3578376
255,"Pilenai",2014-07-18,"food",25.2795982,54.6726313
256,"<U+0410><U+0437><U+0430><U+0440><U+0435><U+044F>",2013-12-10,"lodging",24.639129,42.8747552
257,"Gameswap",2014-09-27,"shopping",3.7213797,51.049848
217,"Twang",2014-05-22,"cafe",18.0788131,59.3117663
8228,"Detektywi Gorzów",2016-06-15,"default",15.23606300354,52.730964493116
280,"Gospodarstwo Agroturystyczno - Ekologiczne""Stajnia Lezno""",2013-12-13,"attraction",19.7032346,53.2710389
264,"PYT",2014-12-18,"food",-75.1391589,39.9665561
263,"Apartmán ajaj",2013-11-30,"lodging",18.9057165,48.4506331
266,"It Is Vapor",2014-12-27,"default",-122.2264733,37.4855589
265,"Bertamini",2015-06-03,"shopping",10.8760253,45.869228
269,"Moksa",2014-05-07,"food",-71.1010542,42.3636159
267,"n7media - Agentur für Kommunikations- und Webdesign",2014-01-07,"default",10.163109,53.6528377
268,"Kunstkopien in Öl auf Leinwand - Dorothea Adam",2014-05-20,"default",9.0330749,51.6267552
273,"One Stop Coney Shop",2014-03-01,"food",-85.6645169,42.9630238
270,"Hotel San Martín",2013-07-09,"lodging",-68.8448455,-32.8883981
271,"Pizzeria Tiepolo",2014-04-27,"food",12.2857136,45.6771049
272,"Otherland",2013-10-07,"shopping",13.3947046,52.4888868
278,"Minh's Cafe",2014-04-12,"cafe",-97.7504309,30.4287281
274,"Pole namiotowe",2014-05-13,"lodging",19.6458031,53.2000961
275,"La Casa del Almirante",2014-06-23,"lodging",-71.5651245,-33.0268673
276,"michele silvestri",2014-04-09,"default",8.1048822,45.5815867
277,"Das Russische Sprachstudio",2013-07-19,"attraction",8.5338035,47.3810339
282,"Steve Alper DMD",2013-11-26,"default",-73.9907073,40.7389191
283,"Jia",2013-12-23,"food",5.3745371,52.1549622
284,"BOTENDIENST|QUICKTRANSPORT.AT",2014-10-24,"default",16.3733152,48.1872898
288,"ZCrêpes Café",2014-02-22,"food",-81.86325,26.6428482
286,"K-Market Jätkäsaari",2015-05-29,"grocery",24.9195985,60.1603553
287,"La Porte Cochère",2015-05-14,"lodging",2.882953,50.8493957
292,"Bars 'N Beats Recording Studio",2013-12-18,"default",-74.6529196,40.5009856
289,"Spis",2014-11-26,"food",24.9478673,60.1637887
290,"PerronHosting.com",2014-02-16,"default",-73.978673,45.7703
296,"Cups and Cakes Bakery",2013-04-14,"grocery",-122.4092269,37.7720246
293,"Cheapsleep Hostel",2013-11-26,"lodging",24.956026,60.193792
295,"<U+0E01><U+0E2D><U+0E07><U+0E15><U+0E33><U+0E23><U+0E27><U+0E08><U+0E2A><U+0E37><U+0E48><U+0E2D><U+0E2A><U+0E32><U+0E23>",2015-01-14,"default",100.6171651,13.8635545
298,"Lido Asian Cuisine",2014-04-09,"food",-97.5317178,35.4950363
297,"?",2014-11-28,"default",17.6494571,49.220221
259,"Romantikresort",2013-04-18,"default",13.2427051,48.7096216
8418,"www.Manunu.eu",2016-08-12,"default",16.9013983011246,52.4097888162611
301,"Masshemden Atelier Voglhuber",2014-06-05,"default",16.3421012,48.2243996
321,"Sara's KW Driving Academy",2014-03-19,"default",-80.4910633,43.4496827
310,"Padthai Thai Restaurant",2014-04-09,"food",-97.4422524,35.2115934
304,"Clínica Lucq",2013-11-30,"default",-5.9786981,37.3744381
305,"Alternativhälsan Östermalm",2013-12-05,"default",18.0954851,59.3457035
306,"Peyer Fine Art GmbH",2013-11-20,"default",8.5409899,47.3723846
308,"<U+C774><U+C790><U+CE74><U+C57C> <U+B3D9><U+ACBD><U+AD6C><U+B77D><U+BD80>",2014-06-29,"food",127.0292663,37.585497
309,"Okrasná školka Droždín",2015-03-11,"shopping",17.3340746,49.6124609
311,"CoVis CoWorking",2013-11-26,"default",-96.0826749,41.2498239
17074,"Soporte PC y Criptomonedas",2019-03-07,"default",-68.0050277709961,10.1811324340565
322,"Paper Street Market",2014-12-16,"default",-82.6473269,27.7713227
313,"boca gastrobar",2015-03-30,"food",9.7408566,52.3881503
315,"Portside",2015-01-23,"food",22.5063515,60.0195582
317,"Paprika Hostel",2014-06-23,"lodging",19.0614269,47.5054819
303,"New Mexico Tea Company",2013-04-18,"default",-106.658747,35.0957414
323,"Yummy Thai",2014-03-18,"food",-82.6450904,27.8668929
333,"Oriental Express",2014-03-26,"food",-95.7605191,39.0150333
302,"Sandman Hotel Revelstoke",2014-07-17,"lodging",-118.2180204,51.0099889
325,"Lumen GmbH",2015-05-06,"default",9.7754914,52.3285705
326,"Centrum Mebli Rattanowych i Stylowych",2014-06-18,"default",21.0776991,52.2002489
327,"Elektro-Instalacje",2014-01-30,"default",20.9573612,52.2248906
328,"Viceroy Bali",2014-08-09,"lodging",115.2775511,-8.4939982
15855,"<U+0641><U+0631><U+0648><U+0634><U+06AF><U+0627><U+0647> <U+067E><U+0631><U+06A9><U+0646><U+06CC>",2018-10-22,"default",49.0525281429291,33.4916072555713
330,"K-Market Mansku",2015-04-10,"grocery",24.918532,60.1875733
331,"michal kindergarden",2013-12-16,"attraction",34.773014,32.0700275
332,"Didoo Cafe",2014-01-31,"default",34.787301,32.091112
334,"Asian Cafe",2014-03-26,"food",-95.7254529,39.0278373
335,"Clevelander Hotel",2014-01-28,"lodging",-80.1309841,25.7805541
339,"Penn Animal Hospital",2014-02-01,"default",-75.8819666,39.8231819
336,"Aurelius Interactive",2013-10-09,"default",20.6412159,52.1073717
337,"Bezpol",2014-02-04,"default",22.0338827,50.0380472
338,"Literárna kaviaren",2013-05-03,"cafe",18.739157,49.223973
324,"Eclectico",2013-11-09,"default",144.9803739,-37.8694322
300,"Blue House B&B",2014-04-12,"lodging",-21.9986506,64.1540263
17075,"Athena Bitcoin Cajero",2019-03-08,"atm",-72.4549734592438,7.82130360571118
341,"Venusia",2014-06-25,"default",6.1407722,46.1934179
345,"Arden Jewelers",2014-10-25,"shopping",-121.3983679,38.5956986
344,"Apartamentos Otorongo",2014-05-27,"lodging",-79.0139429,-2.8969103
349,"The Trunk Stylists",2014-12-10,"shopping",-82.6426345,27.7713544
366,"RE-UP BBQ",2014-04-25,"food",-122.9115154,49.200092
348,"CeX Leeds",2014-10-27,"default",-1.5443754,53.7995573
353,"The Broken Spoke",2014-09-26,"shopping",-122.7567278,48.1148885
351,"JSV International Assistant Service",2014-12-14,"default",14.3323303,50.0392863
364,"Papa G's",2013-11-06,"cafe",-122.6421431,45.5046824
354,"artx Designagentur Berlin",2013-12-18,"default",13.4231381,52.5313206
355,"Blueberry",2015-01-05,"cafe",18.0786645,59.3347281
356,"DRUŽBA BOULDERING WALL",2014-01-13,"nightlife",18.1822722,49.8370839
368,"Anonymous Tattoo",2014-12-12,"default",-81.0907363,32.0805836
358,"Mani Al Cielo",2014-12-23,"nightlife",11.0443447,45.8881405
359,"Malefitz",2014-10-30,"shopping",16.3333442,48.1807703
370,"Squirrel Café",2014-06-29,"cafe",144.998243,-37.794259
362,"Bellezza Studio",2015-04-01,"default",11.0364056,45.8907824
696,"Ventonegro - Mountain Guide",2013-09-26,"default",-68.8625203,-32.9337069
319,"<U+039A><U+03CC>µµa <U+03A0>e<U+03B9><U+03C1>at<U+03CE><U+03BD> <U+0395><U+03BB><U+03BB><U+03AC>da<U+03C2> - Pirate Party of Greece - <U+039A>e<U+03BD>t<U+03C1><U+03B9><U+03BA><U+03CC> G<U+03C1>afe<U+03AF><U+03BF>",2013-12-15,"default",23.7282673,37.9776512
363,"Mare Nero",2014-02-03,"food",8.1131385,49.8396681
375,"Bi Bim Bap Korean-Japanese Sushi Restaurant",2014-03-21,"food",-96.5728488,39.1860273
365,"Bar e Bicicletaria Las Magrelas",2013-02-28,"nightlife",-46.6922432,-23.5565056
343,"Underhill's Games",2014-01-25,"default",-81.5080686,41.1304234
367,"Kyrios Pousada",2013-03-04,"lodging",-45.5616388,-23.7860366
373,"Brooklyn South",2014-12-16,"food",-82.653952,27.7712825
369,"MusicON",2013-09-12,"default",21.15293,52.30844
371,"Apartment Eucalyptus",2013-11-29,"lodging",15.157466,36.9200158
372,"<U+0426><U+0438><U+0444><U+0435><U+0440><U+0431><U+043B><U+0430><U+0442>",2014-05-07,"cafe",30.5158687,50.447473
14377,"REPRESENTACIONES PLAST ",2018-07-04,"default",-72.244119644165,7.68507048449332
376,"SUBWAY Zelny trh",2015-03-13,"food",16.6096883,49.1927975
377,"London Hackspace",2013-04-14,"default",-0.0608219,51.5321142
378,"Il Giornale",2014-06-27,"default",9.1844258,45.4653323
360,"The South Melbourne Trader",2014-09-07,"food",144.956894,-37.83049
8976,"Lan Gamer",2016-12-14,"default",-43.9574253559113,-19.8612660684149
9067,"KAMRAN CHATTHA",2016-12-30,"default",72.9059600830078,31.8157299428383
381,"LUX",2015-01-23,"nightlife",9.7205471,52.3681975
382,"SUBWAY Rohlenka",2013-12-16,"food",16.7609876,49.1839015
383,"Ineo",2014-08-02,"default",20.3898505,44.7992416
384,"Hringbraut",2014-05-02,"default",-21.954324,64.146661
385,"Hávallagata",2014-05-02,"default",-21.9513614,64.1477119
387,"<U+05E4><U+05D9><U+05E7><U+05D5><U+05E7>",2014-05-15,"nightlife",34.7803113,32.0714337
388,"<U+05D3><U+05D5><U+05D3><U+05D9> <U+05D1><U+05DF> <U+05D9><U+05E9><U+05D9> - Dudi Ben Yishay",2014-07-06,"shopping",34.7802469,32.0714269
394,"Ricky P's",2014-11-24,"food",-82.650522,27.771341
391,"Hotel Viejo Telmo",2014-11-26,"lodging",-58.3798969,-34.6153111
392,"Hotel Argenta Tower",2014-12-01,"lodging",-58.3795149,-34.5930895
393,"Hotel Boutique Le Vitral Baires",2014-12-03,"lodging",-58.395126,-34.606136
398,"EVR NYC",2013-04-14,"nightlife",-73.984652,40.7524774
395,"Qrubit",2013-04-14,"default",-110.3026602,24.121471
396,"Edds Englisch",2013-04-28,"default",11.8698283,52.6114825
400,"Vegas Budget Dental",2013-04-15,"default",-115.2327178,36.1258841
405,"Overland Park Jeep Dodge Ram Chrysler",2013-04-17,"shopping",-94.6669718,38.9699111
401,"Carena Bar - Restaurant",2013-04-15,"food",20.6012471,38.3032742
403,"CESYT",2013-04-16,"attraction",-58.5198403,-34.4695284
407,"Urban Living Suites",2013-04-18,"lodging",-79.4074544,43.651902
406,"Total Roofing",2013-04-18,"default",-104.7132847,38.8558931
408,"Model Printing internet cafe",2013-04-20,"default",-118.3740182,34.1643282
380,"Mac's Coins & Collectables",2013-12-09,"default",-122.0328367,37.3780322
409,"Parnell's Pub",2014-04-09,"food",-81.5652517,41.5008146
411,"INGUARD",2013-04-22,"default",-85.8241762,40.7954798
697,"Temascal",2013-09-26,"default",-70.545057,-33.5203143
410,"AntiDomingo - Restaurante -  Espacio de Arte",2013-04-21,"food",-58.4827456,-34.5429378
412,"Elevated Beer Wine & Spirits",2014-05-27,"grocery",-93.2238299,44.9277216
413,"Caring Dentists",2013-04-22,"default",-86.02414,39.7961477
415,"Arbogast Inn",2013-04-28,"lodging",-79.5848885,38.4147973
414,"<U+05D7><U+05D1><U+05E8> <U+05E2><U+05DC> <U+05D0><U+05E8><U+05D1><U+05E2>",2013-04-22,"default",34.9868298,32.7851831
14378,"COMERCIALIZADORA PIVECA CA",2018-07-04,"default",-72.2261703014374,7.77134418393731
418,"Peeper Ranch",2013-04-24,"sports",-94.8917005,38.9625124
417,"BitcoinSolution UG",2014-10-28,"default",7.8135466,48.5768535
419,"Cyber Computers",2013-04-28,"shopping",-122.2629487,38.1098063
420,"ABQBitcoins",2013-04-28,"shopping",-106.6432031,35.0936542
422,"Jay Cohen Attorney",2013-04-29,"default",-95.3602521,29.7633158
421,"Ecogex",2013-04-28,"default",2.3693991,48.8508512
423,"Restaurant Le 43",2013-12-25,"food",2.3500641,48.8281212
402,"Ark Army Surplus",2013-04-15,"default",-79.4714987,43.7298396
379,"The Forum",2014-05-01,"nightlife",-2.101886,49.1823853
425,"OpenLab",2013-08-07,"default",10.8867806,48.3577357
431,"Hive76",2013-12-18,"default",-75.1535149,39.9620241
427,"Galilee Bedouin Camplodge",2013-05-04,"lodging",35.1671927,32.7473117
428,"Ruben og Bobby",2013-05-06,"shopping",12.5451958,55.6919311
437,"Fairtax Business Services",2014-03-19,"default",-80.4910233,43.4497252
432,"Bucephalus Bikes",2014-01-19,"shopping",-87.6933691,42.0439539
435,"Accelerated Global - Website Design, SEO, Social Media, Internet Marketing",2013-07-16,"default",-82.4675148,28.2545197
433,"Anker Klub",2014-11-23,"nightlife",19.0555471,47.4981089
438,"Buyer's Best Friend Wholesale & Market",2013-05-13,"shopping",-122.3928736,37.7949012
439,"Mercato",2013-05-13,"shopping",-122.4082139,37.799094
436,"El Diablo y la Sandía",2013-07-06,"lodging",-96.7194275,17.0622261
444,"Bitcoin ATM @ Father and Sons",2014-05-18,"atm",-75.6812834,45.4236594
448,"Bear & Birch Russian Sauna",2013-05-28,"default",-74.254887,40.2386813
453,"Stix",2014-03-20,"food",-94.8266002,39.1257138
440,"Mundo Nipón",2013-10-10,"grocery",-3.7209567,40.3164912
441,"Karakter",2014-05-27,"food",5.9015192,51.9833075
442,"ZB45 makerspace",2013-05-16,"default",4.9371836,52.3669615
445,"3D tlac - MarSal Tech",2013-05-25,"default",17.1333048,48.1884173
446,"Lekkerurlaub",2013-07-17,"lodging",13.4193216,52.4947545
426,"Brave New Books",2013-05-03,"shopping",-97.7422902,30.2822276
456,"Mai Thai",2014-04-12,"food",-97.741411,30.264266
449,"Fire & Ice - Fire dancers Cape Town",2013-11-19,"default",18.5068705,-33.9309411
450,"Carregador Telemóveis Bitcoin",2013-05-29,"default",-8.420859,40.1953477
451,"Schinkler B&B",2013-05-29,"lodging",-0.0475145,51.4453074
452,"Hillside B&B",2014-04-18,"lodging",-1.7933118,51.0338414
465,"Accountable Moving & Storage",2013-07-20,"default",-122.331924,47.5542827
454,"Nom Noms",2013-06-03,"food",169.7384583,-46.2388791
455,"Massage, Reiki, Reflexotherapy",2013-06-04,"default",28.6276082,44.1977147
457,"BLB Studio Legale",2014-07-24,"default",9.1734123,45.4621248
458,"Bit2c",2013-07-08,"shopping",34.7820282,32.0733562
459,"Paisajismo Creativo",2013-06-10,"shopping",-72.5000885,7.8978667
461,"Wall Street Café",2013-09-15,"cafe",9.5034086,45.6616644
462,"Meidänklinikka",2013-06-12,"default",24.8601699,60.2474293
463,"Zaar Properties",2014-02-11,"default",-0.1075162,51.3828723
464,"BitcoinPeople.net",2013-06-16,"default",14.4287941,46.0324281
430,"Coworking Space Toronto",2013-05-09,"default",-79.5241625,43.5964282
424,"spielend - programmieren",2013-11-26,"default",16.3690078,48.2249234
9068,"KAMRAN CHATTHA",2016-12-30,"attraction",72.7940368652344,31.8180638159099
9069,"KAMRAN CHATTHA",2016-12-30,"default",72.9093933105469,31.6855232841456
472,"Everything Dolce Cafe`",2014-11-12,"cafe",-82.6477614,27.7713247
469,"Carolina Herrera",2014-11-06,"shopping",-3.6881045,40.4226354
470,"Nestor Games",2013-11-29,"default",-0.9186542,41.645174
471,"Traductor inglés/francés a español",2014-06-10,"default",-0.888857,41.628862
478,"My Doctor Medical Group",2013-06-26,"default",-122.4077704,37.7895241
473,"Koryo Tours",2013-06-24,"default",116.4456793,39.9330018
474,"První hovoranské - domácí pivo",2014-01-15,"default",17.0028863,48.9553813
475,"Svadobný salón - La Fiaba",2013-12-04,"shopping",21.2317463,48.7183858
476,"Tuxel",2014-05-23,"default",11.2175238,43.7667624
477,"Smokies",2014-03-03,"default",11.2513417,43.7767717
480,"Elite body sculpture",2013-06-29,"default",-118.4054183,34.0685731
492,"Monti Notary Services, LLC",2013-07-09,"default",-90.3866885,29.9010124
481,"LotWin Software",2013-07-03,"default",1.1700115,51.0805689
483,"El Hostelito",2013-07-06,"lodging",-103.3639647,20.6789092
486,"YogiWay",2013-07-06,"default",21.9126911,48.9209562
487,"Loewe",2014-11-06,"shopping",-3.6878536,40.4240656
488,"Prada",2014-11-06,"shopping",-3.6877992,40.4243699
489,"Gite de la Fontaine",2014-01-07,"lodging",2.7152861,44.3352159
490,"BB del Corso",2013-07-08,"lodging",14.2677924,40.8545977
491,"Bed and Breakfast Luna Luna",2013-07-08,"lodging",4.4763857,51.0296191
493,"Audio Props",2013-07-09,"default",-80.076921,26.803033
496,"Nesenoff & Miltenberg LLP",2013-07-10,"default",-73.9922549,40.7485331
495,"Ottonodi S.r.l.",2013-07-10,"default",12.5598787,41.9444994
501,"Heidi Jo's boutique",2013-07-11,"shopping",-82.6852635,28.3318001
497,"Artistry cafe",2013-07-10,"cafe",103.8581886,1.3028912
498,"De Castro Herrero",2013-07-10,"default",12.4384006,41.9229699
16515,"Avtoservis Belec",2018-12-07,"default",14.4687849283218,46.0729142967636
468,"Quizno's Far West",2014-04-12,"food",-97.7563751,30.3546209
502,"Firehouse BBQ",2013-07-11,"food",-111.8746513,40.7255191
16516,"Mlada lipa",2018-12-07,"food",15.6073343753815,46.5404878546976
503,"The Barrel Drop",2014-12-07,"food",-1.1525597,52.9545579
504,"SouthAfrica.to",2013-12-09,"default",18.5178746,-33.927106
645,"Triple Crown Transport",2013-09-11,"default",-117.7854931,33.7202935
506,"CD KEY ARG",2013-07-26,"shopping",-58.3963361,-34.7051933
508,"SV Commerce S.R.L.",2013-07-17,"default",15.0721251,37.5384634
509,"klikaid.com",2013-07-26,"default",-0.3541131,39.4656268
510,"Mark Hachem",2013-11-26,"default",2.3661152,48.8562186
500,"Rollingdale Winery",2013-07-11,"default",-119.5432898,49.8706005
466,"X-Laboratories",2014-04-12,"default",9.184378,45.4656313
8448,"<U+041C><U+0430><U+0433><U+0430><U+0437><U+0438><U+043D> <U+041F><U+0440><U+044F><U+0436><U+0438> <U+043D><U+0430> <U+041A><U+0443><U+0439><U+0431><U+044B><U+0448><U+0435><U+0432><U+0430> 80",2016-08-15,"shopping",56.2472587823868,57.994703475041
523,"David's Antiques",2013-07-29,"shopping",-90.0671103,29.9552478
514,"Souren Meubels",2013-07-22,"default",5.8822565,50.9214593
516,"Studio Legale Nicolin & Partners",2013-07-25,"default",11.5410603,45.5497484
518,"Eat Me Restaurant",2014-04-24,"food",100.5338981,13.7254794
512,"Bitbond.net",2013-07-19,"default",13.4136813,52.5431837
519,"The Ring Farmhouse",2013-07-27,"lodging",-7.8818318,53.0786473
520,"Deportes Pineda",2013-07-27,"default",-16.2865003,28.4696927
521,"VirtuálníMeny.com",2014-07-23,"default",14.7127509,49.272533
522,"Altes Haus 1912",2014-01-03,"shopping",8.6080476,54.3156663
529,"Nesbit's Fine Watch Service",2013-08-09,"shopping",-122.3366622,47.6097909
524,"Gaumenkino",2013-10-27,"food",15.4511652,47.0697416
525,"The Pink Cow",2013-07-30,"food",139.7347066,35.6619788
527,"Remedy Café Whyte Ave",2013-07-30,"cafe",-113.4981158,53.5181957
542,"Plasticsmith Inc.",2013-08-07,"default",-123.6502561,49.4253236
528,"Makers Academy",2013-08-01,"attraction",-0.0870287,51.5230177
540,"David's Grill & Bar",2013-08-04,"nightlife",-81.6910207,41.5070127
530,"King William IV",2013-08-02,"food",-3.2553098,51.4161187
531,"Paul Christie Artists",2013-08-03,"default",-0.8079667,51.2142696
532,"RedBedlam",2013-08-03,"default",-0.0831539,50.8651654
533,"MetaLair",2013-08-03,"default",-0.0830144,50.8649995
534,"Ravenscourt Design",2013-08-03,"default",-0.8078318,51.2142822
535,"Virtual Doctors Charity",2013-08-03,"default",-0.0829556,50.8650162
536,"the idiot village",2013-08-21,"shopping",-3.2549219,51.4162546
538,"Bitcoin Stickers",2013-08-04,"default",-0.1340355,50.8452085
539,"Coast Networks",2013-08-04,"default",-0.1154337,50.8175802
541,"Tlumacz Przysiegly jezyka francuskiego",2013-08-06,"default",21.0509758,52.1756954
544,"Vital Signs and Graphics",2013-08-07,"default",-123.6450166,49.4354428
14812,"Cafetería Petrona",2018-09-14,"cafe",-102.292199134827,21.8823378209604
548,"No Limit Landscaping",2013-08-08,"default",-123.090625,49.2447077
546,"calbasi.net",2013-08-08,"default",2.3656065,41.6424458
549,"Art of Muse",2013-08-08,"default",-123.1094654,49.2838787
550,"Rocket Cases",2013-08-08,"default",-123.1121284,49.2836873
597,"Limousine Service - Ride a class",2013-08-31,"default",-74.9784601,39.8297606
551,"Free Geek Vancouver",2013-08-08,"default",-123.0675825,49.2828816
552,"Key 3D",2013-08-08,"default",-123.1079885,49.2812739
553,"Rapid Edge Technologies",2013-08-08,"shopping",-123.7560568,49.4764425
513,"Christopher Rütman HairStylist",2013-07-21,"shopping",-118.5993594,34.1680312
1088,"Smart NS",2013-11-23,"default",23.811187,38.0514676
8409,"CESFIL - LAR DE IDOSOS",2016-08-09,"default",-52.3312497138977,-31.7701939499189
565,"BooshWorks",2013-08-22,"default",-87.6467139,41.8535316
559,"Jaybird Home Improvements",2013-08-12,"default",-123.6407587,49.4462556
580,"Clock Tower Brew Pub",2014-04-24,"food",-75.6926952,45.4293401
560,"HolidayDelux",2013-08-13,"default",27.9279826,43.2116975
561,"laptopstore.gr Kalamata",2013-08-14,"shopping",22.1120191,37.0398136
563,"Bells and Whistles Bespoke Wedding Stationery",2013-08-16,"default",-0.3666919,50.8260584
564,"Zephyr lodge",2013-08-19,"lodging",-89.9791028,15.5797752
568,"La Nay Ferme",2013-08-22,"default",-111.6469702,40.2999382
567,"NRGym",2014-02-05,"default",21.9180194,47.0516746
583,"Luxury Vacation Cabin Rental",2013-09-05,"default",-111.3075235,43.6633694
569,"Atelier 77",2014-04-22,"shopping",-73.620874,45.5370965
570,"Sweet Dreams Cupcake Café",2013-08-25,"cafe",6.636048,46.5251266
571,"Squash Passion",2013-08-25,"default",103.8484881,1.2868039
572,"Bachman Roasting",2013-08-25,"default",127.4194858,36.3224546
573,"Surat IT Pte. Ltd.",2013-08-25,"default",103.8429873,1.318278
574,"kranjiracing.com",2013-08-25,"default",103.7659708,1.4234341
575,"Winn Host",2013-08-25,"default",103.8508024,1.2924963
576,"Paraeasy",2013-08-25,"default",8.6073001,46.9955152
577,"ProAdicta Escape Ambulatorium",2013-08-25,"default",8.0549832,47.3057547
578,"Birchler Media",2013-12-07,"default",8.7469781,47.1293848
557,"Manila Bay Cafe",2013-08-09,"food",-117.9788371,46.3206726
558,"Copper Stills",2013-08-12,"default",-123.643337,49.422352
582,"AutoCoinage Bitcoin ATM/Canada Hotdog",2014-05-25,"atm",-73.5760049,45.5462651
584,"Brothers Whim Bookstore",2013-08-31,"shopping",-111.8846222,40.4982963
585,"20mission Hacker Hotel",2013-08-31,"default",-122.4178384,37.7587119
586,"The Santa Cruz Experience Wine Tour",2013-08-31,"default",-122.0385092,36.9824413
587,"Café Berlin",2013-08-31,"cafe",-115.2072063,36.0720711
588,"Dmitry Savchenko Art Photography",2013-08-31,"default",-118.2969126,34.1221138
589,"Brain Guzzle Digital Marketing",2013-08-31,"default",-118.3780461,34.0932873
590,"Mas Music Productions",2013-08-31,"default",-118.2067935,34.1217773
591,"Logan Fairfax Law",2013-08-31,"default",-117.1599549,32.7141993
592,"Lucid Guitar Studio Lessons (dvd, skype, guitar lessons)",2013-08-31,"default",-95.7105846,37.0753235
593,"Alberty’s Broadway Liquor",2013-08-31,"grocery",-95.4029606,35.7556774
595,"False River Fencing",2013-08-31,"default",-91.4433462,30.6955212
596,"E-Gov Link",2013-08-31,"default",-84.5411898,39.165605
598,"Dr. Murad Thakur",2013-08-31,"default",-81.3147606,28.5241431
581,"Rafftas Knick Knacks",2013-12-18,"default",146.3955451,-38.2307613
627,"Wisdom Survival Kits",2013-09-02,"default",-113.4921427,53.5452827
605,"Debordieu Beachfront Villa",2013-09-02,"default",-79.152546,33.370125
604,"Phenoptix",2013-12-02,"default",-1.2130131,52.9287622
628,"Wiki Speed",2013-09-02,"default",-122.2935987,47.8084569
606,"La Casa en Guanajuato",2013-09-02,"lodging",-101.2552001,21.0164854
607,"Dive Adventures Tulum",2013-09-02,"sports",-87.4657949,20.211455
608,"Villa In the Caribbean",2013-09-02,"default",-63.0338016,18.0159761
609,"Copa Apartments",2013-09-02,"default",-43.1796703,-22.9657072
610,"The Farmhouse",2013-09-02,"default",-2.4055537,51.9298963
611,"B&B De Haven",2013-09-02,"lodging",4.5073454,52.1629764
612,"Canal Apartments",2013-09-02,"lodging",4.8780329,52.3694796
614,"Heidi Leyton - Berlin Tours",2013-09-02,"default",13.4217795,52.4765475
615,"Fabelhaft Bar",2013-09-02,"nightlife",13.421213,52.4926413
616,"Experience Paris",2013-09-02,"default",2.3079261,48.853361
617,"Lakeside Apartment in Tata",2013-09-02,"default",18.3277058,47.6473422
618,"Emident",2013-09-02,"default",19.0272363,47.5493066
619,"Culture Discovery Vacations",2013-09-02,"default",12.2340192,42.4180687
620,"Quinta da Abelenda",2013-09-02,"lodging",-8.1071609,40.3975506
621,"Paraiso Perdido",2013-09-02,"lodging",-6.1050038,36.316523
622,"October Bar",2013-09-02,"nightlife",34.7748698,32.0647627
623,"GREAT LOCATION, Cozy 2BR in Hongdae",2013-09-02,"default",126.926412,37.5562751
624,"Shawson Plastics",2013-09-02,"default",27.9743119,-26.078775
625,"Gotaclick",2013-09-02,"default",18.473003,-33.9710175
634,"Lightbox Technologies Inc",2013-09-03,"default",-75.7088092,45.3442673
629,"Phillip Morgan Photography",2013-09-02,"default",-122.3332006,47.6069606
630,"Siempre Beauty",2013-09-02,"default",-122.6265672,45.5412826
631,"Humble Bundle",2013-09-02,"default",-122.4021345,37.79696
632,"BitcoinStore.com",2013-09-02,"default",-121.9835014,37.3806428
635,"Brooklyn Bagel Deli",2013-10-18,"food",-115.1040079,35.9992281
603,"MountaineerIT",2013-09-05,"shopping",-80.4592545,39.0379364
636,"XPI LLC",2013-09-04,"default",-96.7938544,46.8707071
638,"Sunlight Homes",2013-09-05,"default",-106.5321456,35.1907704
637,"Haydon Computer Solutions",2013-09-05,"default",-0.7930017,51.1979768
640,"Call The Ninja Computer Repair",2013-09-11,"default",-118.2892305,33.8601141
641,"Luxury Living Direct",2013-09-08,"default",-117.8653959,33.6981497
644,"Edmond's Plaza Florist",2015-01-08,"shopping",-122.3239197,37.564246
642,"Carpe Diem Accounting",2013-09-09,"default",-2.1081179,49.1831296
643,"Sanshinkai Aikido Utrecht",2013-10-30,"default",5.1396952,52.076874
626,"DataOne",2013-09-02,"default",153.0892964,-26.6511691
600,"Coin Republic",2013-09-01,"default",103.850783,1.2821538
648,"Ostosmarket",2013-09-13,"grocery",27.7273641,62.9886083
654,"Winnipeg Technology & Computer Renewal Express",2013-09-15,"shopping",-97.1392924,49.8973665
649,"Translation Genie - Professional Translation Services",2013-09-14,"default",32.751648,39.9069502
650,"Bitcoin Embassy",2013-09-14,"default",-73.5705426,45.513091
658,"New Liberty Dollar",2013-09-27,"default",-118.7387041,34.1388967
652,"Restaurante Marisqueria Os Galegos",2013-09-14,"food",2.2924038,41.6176401
663,"Vancouver iPhones",2013-09-19,"shopping",-123.0898413,49.2715235
646,"Stanfield's Pro Hockey Underwear",2013-09-12,"default",-63.6899786,44.7038686
656,"Atelier de la Guitare",2015-01-10,"default",1.4408606,43.6019697
657,"Giljaland Accommodation",2013-09-16,"lodging",-18.5056793,63.7197471
659,"Bees Brothers",2013-09-18,"default",-111.8040248,41.7693989
660,"Sweet Burrito Provo",2013-09-18,"default",-111.6583936,40.2507868
661,"Knives4Bitcoin",2013-09-18,"default",-111.6589718,40.2339429
662,"Shatto & Sons Custom T-shirt Shop",2013-09-18,"default",-117.3015836,33.0618314
666,"Agora Commodities",2013-09-19,"default",-104.8141159,41.1337479
651,"C&E Auto Parts and Service, LLC",2013-09-14,"default",-75.2231885,39.9074938
667,"Private Internet Access",2013-09-19,"default",-85.7563234,42.9123948
668,"PheromoneXS",2013-09-19,"default",-89.8143662,35.4487922
669,"The Vapor Station",2013-09-19,"default",-96.9629146,32.9991522
670,"Grass Hill Alpaca Socks",2013-09-19,"default",-72.684656,42.399978
671,"OK Cupid",2013-09-19,"default",-73.9022156,40.9082058
672,"BitVPS",2013-09-20,"default",-73.8719703,40.8801074
673,"Xcubicle",2013-09-20,"default",-73.9899564,40.7154852
674,"Techno Tourist",2013-09-20,"default",-74.005943,40.7144038
675,"Churrusco Shop",2013-09-20,"default",-75.1651416,39.9903571
677,"Philadelphia Slick",2013-09-21,"default",-75.0969678,39.9893136
676,"JFF-Software",2013-12-11,"default",6.7418609,49.9762867
678,"Lucid Guitar Studios",2013-09-21,"default",-80.2440421,36.1000126
680,"Netsolus",2013-09-21,"default",-94.5787346,39.1012251
679,"Capri Shopping",2013-09-21,"default",14.2437697,40.551629
687,"Puppy Paws",2013-09-27,"default",-73.8440086,40.6805896
681,"Gide Get HB",2013-09-27,"grocery",18.7040275,63.7188423
682,"Kigurumi Canada",2013-09-22,"default",-73.5975839,45.5253582
683,"Memiro Mexico",2013-09-22,"default",-102.5056244,23.6974568
684,"Siglotienda",2013-09-22,"default",-98.9780798,19.490128
685,"CR servers",2013-09-22,"default",-84.0818538,9.9274821
690,"Devotay",2014-04-12,"food",-91.5317792,41.6630854
688,"Mata Candelas",2013-09-24,"default",-75.5648017,6.2449132
689,"Rocco Graficas",2013-09-24,"default",-75.587182,6.2471528
691,"MEM Services EOOD",2013-09-24,"default",23.3293568,42.696697
655,"The Old Fitzroy Hotel",2013-09-16,"food",151.2206281,-33.8731346
8232,"AGDV-antincendio-antinfortunistica-segnaletica-estintori",2016-06-16,"shopping",14.8225897550583,41.1044496430169
694,"Azur Real Hotel Boutique",2013-09-24,"lodging",-64.1811598,-31.4180203
695,"Maxi Vac",2013-09-24,"default",-64.20739,-31.4120319
699,"Mapplics Mobile Solutions",2013-09-26,"shopping",-60.6447398,-32.9559766
700,"Andrés Morales Diseño Gráfico y Publicidad",2013-09-26,"default",-16.2958266,28.4235929
701,"Depor Club",2013-09-26,"default",-16.2849054,28.4614784
702,"Sex Shop 21",2013-09-26,"default",-15.4403418,28.1136915
703,"Canary Hosting",2013-09-26,"default",-15.6288958,28.1416268
704,"Mega.co.nz - Privacy Company",2013-09-26,"default",174.7636067,-36.8484148
705,"Wild Hops Beershop",2013-09-27,"default",10.6143178,44.6947551
723,"Rudimental Rentals",2013-10-05,"default",-118.3188971,34.105369
708,"Hotel Nabia",2013-09-27,"lodging",-5.2883757,40.1791364
709,"La Casona del Piquero",2013-09-30,"lodging",-5.2699023,43.5129491
710,"Taxi - Euro Galicia",2013-09-30,"transport",-7.5571078,43.0100332
711,"La Gamba Del Sur",2013-09-30,"grocery",-6.9545928,37.2540015
712,"OTORRINO A DOMICILIO - DR. LUIS FIDEL NIETO HERNÁNDEZ",2013-09-30,"default",-5.9980953,37.3975479
713,"Jazzexpress",2013-09-30,"default",25.2342783,54.7348373
714,"Velero Rafael Verdera",2013-10-01,"default",2.6309265,39.5661591
715,"Biodiesel - eFuels",2013-10-01,"default",-1.0418774,38.0324301
717,"Casa Rural Valdean Demagico",2013-10-01,"default",-3.528379,41.831892
718,"La Hornera",2013-10-01,"default",-3.5679748,42.1297054
707,"Free Software Foundation",2013-09-27,"default",-71.0587849,42.355516
720,"Ché! Pizza",2013-10-03,"food",-65.1958392,-26.8200008
721,"Caskal Web - Diseño web / gráfico",2013-10-03,"default",-64.2641814,-27.7802109
722,"Kriotec",2013-10-03,"shopping",-59.8647687,-36.7725476
724,"Zoé Fondues & Karaoke - SupperClub",2014-09-30,"nightlife",-73.5975114,45.5595017
725,"Floor's",2013-10-04,"cafe",13.4212317,52.4926854
726,"Map Asociados",2013-10-05,"default",-3.6555852,40.4117521
727,"Spices Cave",2013-10-05,"food",-3.6469963,40.3998387
728,"Kolo Naukowe PROGRES",2013-10-06,"default",18.5709015,53.0214682
729,"Satoshi.pl - Szkolenia i Consulting",2013-10-06,"default",17.9935681,53.1283428
730,"NVW Studio",2013-10-06,"default",17.9222346,50.6681778
731,"Ristorante Novecento dell'Hotel Rovereto",2015-01-19,"food",11.0378482,45.8907467
732,"michalczyk.pro - serwery dedykowane, administracja GNU/Linux, kolokacja, -20% przy platnosci BTC",2013-10-07,"default",20.9268929,52.2513084
733,"Acousticity",2013-10-07,"default",20.9595904,52.2348753
734,"Juguet Erotico",2013-10-08,"default",-3.7918931,40.3169735
735,"ZAS Tarifa",2013-10-08,"default",-5.6044895,36.0130368
736,"Studio legale Valeri & Marini",2013-10-08,"default",10.212537,45.5368
693,"Hotel Garden",2013-09-24,"lodging",-64.1831642,-31.4148338
8445,"Seraphim Blueprint Healing",2016-08-15,"shopping",135.776209831238,34.6804053485628
739,"Hotel Coppedè",2013-10-09,"lodging",12.5067384,41.9210226
755,"Old Ginger Restaurant",2013-10-14,"default",-123.1154638,49.2632495
741,"Prodeo Hotel + Lounge",2013-10-10,"lodging",-58.4346796,-34.5870861
742,"Malografia Printing",2013-10-10,"default",17.1264625,48.1450196
743,"Prevencionsiglo21",2013-10-10,"default",-3.862689,40.3415709
745,"Talleres Hnos. García - Mechanic",2013-10-11,"shopping",-3.4605036,40.3010543
746,"Rebel Yell – Accesorios para motos",2013-10-11,"shopping",-3.4617695,40.3139126
747,"Doctor Fernando Caudevilla",2013-10-11,"default",-3.6937533,40.4122031
748,"BTC Hispano",2013-10-11,"default",-3.697709,40.4176655
750,"The Figure Ground Studio, LLC",2013-10-11,"default",-71.3912112,41.462479
752,"Aperitivo Cafe",2013-11-30,"food",-73.9822047,40.6738326
753,"Holiday Inn Express Brooklyn",2014-08-02,"lodging",-73.9844338,40.6781573
759,"Supreme Writing Service",2013-10-19,"default",-82.4401794,27.9581894
754,"Sven Höhne, Dipl.-Ing. Architekt + Designer",2013-10-13,"default",13.4240061,52.4910541
760,"Coinkite",2013-10-14,"default",-79.39657,43.6507933
756,"SlackStone",2013-10-14,"default",-3.6485303,40.3747232
757,"Mimetix - soluciones digitales",2013-10-14,"default",-3.7298098,40.4289244
758,"Nueva Chacao",2014-11-12,"shopping",-66.8583326,10.4921664
768,"SynShop Hackerspace",2013-10-18,"default",-115.141532,36.1704451
749,"The Figure Ground Studio, LLC",2013-10-11,"default",-122.6507978,45.5039005
761,"Sheller Consulting",2013-10-15,"default",12.606048,55.6775841
763,"Le Goût du Libre",2013-10-15,"default",-73.6039243,45.5230862
764,"Market Opportunities",2013-10-15,"default",10.6192774,44.7060212
765,"Unity Store",2013-10-15,"shopping",10.6301944,44.6963043
767,"aROHma",2013-10-15,"grocery",13.3279766,52.4571043
769,"Tax Men PS",2013-10-18,"default",-118.4489442,34.1882539
770,"MediaStormPro | Digital Media Production",2013-10-18,"default",-81.3789261,28.5428705
777,"Pacific Brewing Supplies",2013-10-21,"default",-117.8068616,34.1051043
771,"Guitar Theory Revolution",2013-10-19,"default",-0.1785466,51.5566701
772,"ALPINARSUB Escuela de Buceo",2013-10-20,"default",-58.5228178,-34.5289014
773,"HitsMakers – Productora Musical",2013-10-20,"shopping",-58.4405048,-34.5809181
775,"Lulú Babies & Kids",2013-10-20,"shopping",-58.418843,-34.598036
778,"Pollo Expresss",2013-10-22,"food",-0.1272174,38.5419735
740,"Bitcoin Gift Cards",2013-10-10,"default",151.6668656,-30.5137112
738,"Bar La Pastilla Roja",2013-10-09,"nightlife",-8.542711,42.8833039
8233,"English Girona",2016-06-16,"default",2.82495081424713,41.9871563132819
781,"H2O Store Italia",2013-10-22,"default",8.8803802,45.4720075
782,"Telepienso",2013-10-22,"default",-4.4212649,36.7212841
783,"Clases de Salsa en Malaga",2013-10-22,"default",-4.4831773,36.7224679
785,"Locus Workspace - Krakovská | Coworkingové centrum",2013-10-22,"default",14.4285913,50.0793836
786,"MPG Servicios audiovisuales",2013-10-26,"default",-58.2792499,-34.7082214
14788,"Nourcastle Restaurant Chain",2018-09-10,"food",49.5881062746048,37.3102983522883
794,"Left Coast Acupuncture",2013-10-25,"default",-122.2604404,37.852255
790,"Camper-Verhuur.be",2013-10-24,"default",4.8290619,51.2325916
791,"Adam Atlas Attorney at Law",2013-10-24,"default",-73.6227128,45.4758668
792,"Iofi Racks",2013-10-24,"default",-58.415925,-34.626313
793,"Aceite de Oliva",2013-10-24,"grocery",-58.3948677,-34.6195589
796,"TrueTobacco.com",2013-10-25,"default",-82.7080388,27.9753888
811,"Wolf Butler Art and Software",2013-10-28,"default",-63.628217,44.6395757
799,"Not Another Hostel",2013-10-29,"lodging",-79.9556731,40.4783395
797,"Apto 703",2013-10-25,"lodging",-48.6348655,-26.9899268
800,"Conscious Cookery",2013-10-26,"default",-117.149549,32.7490147
802,"2894 On Main",2013-10-26,"cafe",-88.4057673,42.7856734
812,"Spirito's Italian Diner",2013-10-29,"food",-117.3250359,33.1801628
801,"Egypt Bitcoins",2013-10-28,"default",31.2041889,30.0457704
817,"Oriental Bistro and Grill",2014-03-20,"food",-95.2532424,38.9425019
803,"spektral",2014-08-11,"default",15.4331594,47.0753934
804,"Gemüsewerkstatt",2013-10-27,"grocery",15.4511329,47.0696996
805,"Gramotécnica - Trefilación de tubos capilares",2013-10-27,"default",-58.4657936,-34.5928531
806,"Silvina Otero Carteras",2013-10-27,"default",-58.5299743,-34.6722027
807,"Estancia El Lugar",2013-10-27,"lodging",-57.8674872,-38.2583465
808,"layer1gfx graphic design",2013-10-28,"default",135.5017207,34.6456034
809,"Persian Shoes",2013-10-28,"default",51.667183,32.6552991
789,"SGC-Hosting",2013-10-26,"default",-73.444239,40.727416
814,"L'Ery Showroom",2013-10-30,"shopping",-65.0406859,-43.3129281
815,"Papelera Pailacura",2013-10-30,"grocery",-65.3174941,-43.2569401
816,"AirStocking España",2013-10-30,"default",2.6318245,39.5790874
818,"Riley & Silver",2013-11-04,"default",-3.2545393,50.9758873
819,"Zahnarztpraxis Dr. Andreas Schnäckel / Dr. Andreas Schnäckel, Dentist",2013-10-30,"default",11.0731673,51.4631118
820,"Torte Špela",2013-10-30,"grocery",14.3741148,46.2177586
821,"Dokter Anseeuw",2013-10-30,"default",5.3311549,50.9280734
822,"Peperhuis.nl",2013-10-30,"default",4.8790378,52.3901816
795,"Seagull Photography",2013-10-24,"default",151.1023511,-33.7079302
780,"Tierra Buena Delivery",2013-10-21,"shopping",-58.0863623,-34.8500858
8234,"Avvocato Alberto Falzoni",2016-06-16,"default",12.2981321811676,45.8859381251441
8456,"La Muse Bouge Coworking space",2016-08-23,"lodging",6.13922774791718,46.1997280686486
836,"R. Jason Cronk, Esquire",2013-10-30,"default",-82.1382488,28.0090597
835,"Compu911",2013-10-30,"default",-113.7648209,52.2542616
14684,"All Crypto Whitepapers",2018-08-20,"default",4.63591396808624,52.3814444567595
828,"Mercadito Natural",2013-10-30,"grocery",-64.1422711,-31.437766
830,"Gîte TerreCiel",2013-10-30,"lodging",-70.4998465,47.4400603
831,"Depósito San Martín SRL",2013-10-30,"default",-59.1009446,-34.288526
832,"Vivero El Potro SRL",2013-10-30,"shopping",-58.1883493,-34.7519717
833,"Saku Anime Store",2013-10-30,"default",-58.3633386,-34.6657642
837,"Adler, Vermillion & Skocilich LLP",2013-11-04,"default",-73.9903779,40.7028886
842,"Bitcoin ATM - Waves Coffee",2013-11-04,"atm",-123.1224298,49.280759
838,"Mixed Tees",2013-10-31,"shopping",-117.8663178,33.8035646
851,"Dobbins Affordable Chiropractic",2013-11-03,"default",-122.2342,37.7560379
861,"Tiny Wren Press;The Flower Lab",2013-11-05,"default",-118.491346,34.018135
839,"Phoenix PCs",2013-10-31,"default",-1.4670449,55.0521824
840,"Darley Tech Ltd",2013-10-31,"default",-1.4786134,52.9437704
841,"PREP",2013-11-01,"shopping",103.836605,1.302049
854,"CAVITY Curiosity Shop",2013-11-04,"shopping",-123.3675316,48.4286184
843,"Some Odd Pages",2013-11-01,"shopping",-0.504468,51.3846254
844,"VisualMarketing",2013-11-01,"shopping",-58.4024736,-34.5991406
846,"Materská škola Fícek",2013-11-03,"attraction",14.252269,50.0755093
847,"Nook Bangsar",2013-11-04,"default",101.6742163,3.1275954
848,"JTW Astronomy",2013-11-03,"default",4.7788761,52.2760692
849,"Bitcoinchecker",2013-11-04,"default",-3.1746819,51.4845848
850,"Esper Consultancy: Exploring Open Source Opportunities",2013-11-03,"default",5.366101,52.1576407
852,"Avondwinkel Het Soesterkwartier",2013-11-03,"shopping",5.3640297,52.1603051
862,"Krystal Fit Studio",2013-11-06,"default",-123.1405922,49.2662082
856,"HOT LOGS firewood",2013-11-04,"default",-3.2519279,51.4075535
857,"The Tobacco Seed Company",2013-11-04,"default",0.7236993,51.5441724
858,"Ensof Event Photography",2013-11-05,"default",103.8469337,1.2876425
859,"19 grams",2014-01-28,"cafe",13.4445487,52.4998892
860,"Augenarztpraxis Dipl.-Med. Ricarda Hoffmann",2013-11-05,"default",13.4576505,52.4921303
825,"Homestead",2013-10-30,"default",-90.1255498,29.942012
863,"Villabate",2013-11-06,"lodging",13.4408882,38.0756881
864,"Expobrill",2013-11-06,"shopping",2.0400924,41.381066
1350,"LPA Legal",2013-11-29,"default",-15.4156221,28.0984801
826,"WebRocker - Web Design, Development, Internet Marketing Services",2013-10-30,"default",-79.3744899,43.6423248
824,"Immobiliare Diaz",2013-11-04,"default",8.8521463,45.6220729
8235,"Bitcoin ATM",2016-06-18,"atm",28.1872969865799,59.3776136601745
8237,"AsicTrade",2016-06-19,"default",35.0150209665298,48.4581562204565
8238,"The Brown Derby Super Store ",2016-06-19,"atm",-90.0983190536499,29.965884235271
875,"Ando Chiropractic, LLC",2013-11-09,"default",-73.9773778,40.8201133
887,"Storm 5 LLC",2013-11-09,"default",-119.8168832,39.5218534
874,"Better Tax Services",2013-11-09,"default",-73.5689439,45.4796074
896,"Stuart Nafey Photography",2013-11-10,"default",-122.4298702,37.4292679
876,"Station Garage",2013-11-09,"shopping",0.166082,51.8661331
901,"Plato’s Cave",2013-11-10,"shopping",-97.1231847,49.8807223
897,"Subway Dorneyville",2013-11-10,"food",-75.5252753,40.5790334
888,"Racunalniški razvoj, svetovanje in izobraževanje, Matija Mazi, s.p.",2013-11-09,"default",14.4128031,46.061052
900,"Mirai Wellness Spa",2013-11-10,"default",-73.9750653,40.6864593
890,"Creations Informatiques LD Inc.",2013-11-11,"default",-73.5525621,45.5970979
891,"Sounds Like Design",2013-11-10,"default",-4.5365982,55.7130818
909,"Coastal Cake Company",2013-11-11,"grocery",-124.3522168,49.3390837
893,"Lunea Apartment",2013-11-10,"lodging",18.0942158,42.6696602
904,"Slam Academy",2013-11-10,"default",-93.2737845,44.9731202
907,"Estancia Verde Luz",2013-11-11,"default",-66.1171469,18.4682314
869,"Aspire Auctions, Inc.",2013-11-08,"default",-81.6756764,41.5079187
898,"79s VOF",2013-11-10,"default",4.8653634,52.372218
899,"Bits of Freedom",2013-12-23,"default",4.8889517,52.3857655
870,"Noosphere Ltd, Computer Repair",2013-11-08,"default",-81.694649,41.4183069
889,"Ecig Shop Miami",2013-11-09,"default",-80.3044574,25.748638
902,"Tendersoft",2013-11-10,"default",20.9167609,52.251567
903,"Artesanosofia",2013-11-10,"default",-6.8813771,40.2241553
871,"Kondratov Labs LLC",2013-11-08,"default",-81.6757756,41.5081501
872,"Aspire Auctions Inc",2013-11-08,"default",-79.9299201,40.4568768
873,"Swifto",2013-11-08,"default",-73.9844792,40.7481626
908,"Ben Johansen Art",2013-11-11,"default",2.1625495,41.424864
895,"Mid-Peninsula Hand Rehabilitation and Ergonomics",2013-11-10,"default",-122.187192,37.4502362
1397,"Orient Reisen Yassu",2013-12-01,"default",66.9272773,39.6675827
878,"Imbiss 25",2013-11-09,"cafe",144.9803321,-37.870662
892,"Antana Coins",2013-11-09,"default",144.9925393,-37.8342232
905,"VeraChan",2013-11-12,"default",144.9570774,-37.8197304
906,"Australian Feldenkrais Centre",2013-11-12,"default",144.992819,-37.8556349
868,"Nenad SEO",2013-11-07,"default",20.4371066,44.816282
8239,"Cafe Luna",2016-06-19,"atm",-90.1201629638672,29.9217249049327
9070,"KAMRAN CHATTHA",2016-12-30,"default",73.0776214599609,31.7561962575714
9071,"KAMRAN CHATTHA",2016-12-30,"default",72.8640747070312,31.7707913930893
913,"BodyComp Imaging",2013-11-11,"default",-123.1173439,49.2859187
914,"Jérémie Bernardin Photography",2013-11-11,"default",-123.1146724,49.2613067
915,"Eidolon Printing and Advertising",2013-11-12,"default",-80.4871092,41.2130832
917,"Beautiful Taiwan Tea Company",2013-11-12,"default",-86.2770199,39.9495602
911,"Crystal Seas Kayaking",2013-11-11,"default",-123.0164499,48.5351916
952,"Perth Academy of Science",2013-11-16,"default",115.8931444,-31.9311034
920,"NetHosted",2013-11-12,"default",-0.9534985,51.4729132
922,"Modus POS LLC",2013-11-12,"default",-73.9208813,40.7724202
923,"Afikyiri Edjua: Backyard Marketplace",2013-11-12,"default",-73.9481101,40.6803123
924,"Dine Home Delivery",2013-11-13,"default",-81.799852,26.2107386
9072,"KAMRAN CHATTHA",2016-12-30,"default",72.8640747070312,31.7526930825464
926,"Bitcoin swapper",2013-11-13,"default",-117.1426132,32.750671
928,"BitcoinDirect.net",2013-11-21,"default",-97.1502323,33.2178
927,"Rénovation Bokor",2013-11-13,"default",-73.8339979,45.5043214
932,"Gearbox Photography",2013-11-13,"default",-122.3399741,47.6100335
929,"Frankville Hostel",2013-11-13,"lodging",-57.9567841,-34.9156471
930,"K&S BYGGSERVICE",2013-11-13,"default",17.5947207,59.1950599
931,"Hairdresser",2013-11-13,"shopping",17.3854535,48.9482975
937,"CLIPS Hair Studio (Inside Sola Salons)",2013-11-14,"default",-92.4119233,34.7518686
933,"I Luv Scotland",2013-11-13,"default",-3.0117385,56.4735753
934,"Warie's Thai Food",2013-11-14,"food",4.8765783,52.3722133
935,"UltraPlay Ltd.",2013-11-14,"default",26.9325467,43.2735421
945,"Dr Nestorowicz, OD, Family Eyecare",2013-11-15,"default",-74.293261,40.2853682
946,"Graham Tiplady: IT Professional",2013-11-15,"default",-149.7207203,61.2071723
938,"Bini Imbiss",2014-09-24,"food",8.260721,47.4984048
939,"Ultrafitness",2014-01-14,"default",-46.6392656,-23.6178991
940,"Travel Fever!",2013-11-15,"default",36.821913,-1.2817887
941,"Easyridez",2013-11-16,"default",18.466646,-34.0235299
942,"Smart-It accounting software",2013-11-15,"default",18.629955,-33.8779243
943,"Junior MBA",2013-11-16,"default",28.0734944,-26.1011303
944,"LegalB",2013-11-16,"default",28.0180297,-26.1700701
947,"Cafe Flor Estrella",2013-11-15,"cafe",-66.0826071,18.3997619
948,"Illinois Concealed Carry, LLC.",2013-11-16,"default",-87.9720051,41.8497912
949,"League City Gold and Diamond",2013-11-16,"default",-95.1029002,29.5053224
950,"Accrete Global Technology",2013-11-16,"default",77.5777241,12.9000239
951,"Ticket to the Moon",2013-11-16,"default",115.171246,-8.6726172
912,"Yuhosports",2013-11-11,"default",-123.0950172,49.3223381
953,"Haikou Banana Hostel",2013-11-18,"lodging",110.338648,20.0552766
954,"AraucoNET",2013-11-16,"shopping",-70.5787024,-33.5937358
918,"Design Industries",2013-11-12,"default",144.9462627,-37.8105859
9073,"KAMRAN CHATTHA",2016-12-30,"default",70.6558227539062,30.1142457445985
9074,"KAMRAN CHATTHA",2016-12-30,"default",70.1531982421875,30.1189973638951
957,"rooi",2013-11-16,"default",18.8431948,-34.0838247
958,"Salone Boschetto",2013-11-16,"shopping",11.461814,46.2908465
959,"Heritage Tea Assam",2013-11-16,"default",94.9120282,27.4728538
964,"Innovative Technology Solutions",2013-11-17,"default",-77.0864158,38.8626244
961,"Rooms for Bitcoins",2013-11-16,"lodging",13.4116031,52.540122
965,"Rare Earth Electronics",2013-11-17,"default",-147.8312806,64.8439716
963,"Taipei Hackerspace",2013-11-17,"default",121.5168491,25.0528912
973,"HoneyBadgerOfMoney.Com",2013-11-17,"default",-122.0126427,37.3838236
983,"Le Petit Jardin",2013-11-18,"food",-118.3760041,34.0517079
966,"Hamburger Väter",2013-11-17,"default",10.0547969,53.5890319
967,"Hand in Hand Patenschaft e.V.",2013-11-17,"default",13.5761927,52.4467844
968,"funk-e.net",2013-11-17,"default",13.3260643,52.5028847
969,"BitcoinCommodities",2013-11-17,"default",13.299489,52.5069388
970,"sprodanit IT-Betruung",2013-11-17,"default",13.5217664,52.5639444
971,"Musikschule Kling-Klang",2013-11-18,"attraction",13.5247911,52.5663243
972,"Artefacti Ltd.",2013-11-17,"default",12.4361553,50.9928886
985,"Neomind Labs",2013-11-26,"default",-75.1745258,39.9505753
975,"Webhost.pl",2013-11-18,"default",19.8937976,50.0727717
976,"Canfone.com",2013-11-18,"default",-73.5568838,45.5055886
978,"Farma kode d.o.o.",2013-11-18,"default",14.5102311,46.0722006
979,"Moj Bitcoin",2013-11-18,"default",14.5255762,46.0976126
980,"Ultramarinos",2013-11-18,"nightlife",2.1679901,41.375486
1072,"coininaction d.sign",2013-11-22,"default",9.9302665,53.5560041
981,"Young Pioneer Tours",2013-11-18,"default",108.940261,34.3415287
982,"Flower Servant",2013-11-18,"default",14.5103874,46.0722688
986,"Wallowa Valley Networks, LLC",2013-11-25,"default",-117.278676,45.4253714
984,"pingutec",2013-11-18,"default",11.6173427,52.1281176
987,"Yabisi Kakaw",2013-11-19,"default",-66.3666694,18.2926074
994,"Flexible Solar Panels",2013-11-19,"default",-97.6855982,30.382269
995,"Haeran Dempsey Real Estate",2013-11-19,"default",-115.2638057,36.1441331
988,"Maison Géorgienne TAMADA",2013-11-19,"default",6.2254773,49.6463573
989,"Kruittoren",2013-11-19,"default",6.1966929,52.1454635
991,"KECHMARA carpets",2013-11-19,"default",10.2247994,56.1653229
992,"Spinthourakis Polydoros",2013-11-19,"default",21.7463968,38.2384319
993,"Muffler.pl",2013-11-19,"default",17.8223253,51.5935983
996,"Hannig Fab Works",2013-11-19,"default",-115.0597195,36.2026532
997,"CoinBus.com",2013-11-19,"default",-115.0885098,36.0249922
998,"CompuExpress US",2013-11-19,"default",-115.3320679,36.3006991
999,"Ninja Studio",2013-11-19,"default",19.9251913,50.0578945
962,"Tokentools Welders Welding Equipment Supplies",2013-11-16,"default",151.4478768,-33.264389
956,"nexst. e.K.",2013-11-16,"default",13.1785202,52.5256189
1005,"Global Leadership Institute",2013-11-19,"default",-77.0599153,38.9401251
1009,"City Wine Cellar - Liquor Store",2013-11-19,"default",-74.163781,40.5914865
1006,"Aglocem S.L.",2013-11-19,"shopping",2.6505102,39.5892012
1007,"La casita de los bombones",2013-11-19,"default",-1.8354876,39.0637111
1008,"Ninja Studio - filia w Toruniu",2013-11-19,"default",18.6979022,53.0285758
1010,"No Egrets Tattoo Studio",2013-11-20,"default",-87.3436887,36.5334886
1011,"Tex Fix Cell Phone Repair",2013-11-20,"default",-96.5825896,33.0114679
1020,"Capucine Frontier SpaceSports",2013-11-20,"default",-118.3154012,34.0915279
1012,"A & M Services - Bookkeeping & Taxes",2013-11-20,"default",-73.6431539,45.503908
1013,"Schätzungsbüro Betschart",2013-11-20,"default",8.5828806,47.0360485
1014,"Designers Heaven",2013-11-20,"default",8.5645991,54.6889585
1015,"Kugler Art Szalon",2013-11-20,"default",19.0530707,47.4999893
1016,"Gigahost",2013-11-20,"default",12.5721171,55.6784412
1022,"The Rothman Company",2013-11-20,"default",-89.9620103,35.1308686
1018,"Umega: Letting Agents Edinburgh",2013-11-20,"default",-3.1948238,55.9394424
1019,"Voxel Factory",2013-11-20,"default",-73.5502967,45.5269279
1023,"Scottie's Workshop",2013-11-20,"default",-121.9285025,37.3279804
1003,"Plastico Moderno",2013-11-19,"default",-66.052241,18.399496
1024,"Pradeep Atluri, MD, PhD (Psychiatrist)",2013-11-21,"default",-73.9769715,40.7566666
1027,"AtomicMall.com",2013-11-21,"default",-120.5274718,46.595937
1031,"Drs Kari and Nick Wilson",2013-11-21,"default",-122.6112855,48.5156636
1025,"Etshirt",2013-11-21,"shopping",-73.674212,45.4348428
1026,"MeidänKlinikka",2013-11-21,"default",21.8633451,61.4686214
1074,"Tc Morgan Photography",2013-11-23,"default",-117.6902856,34.0319472
1032,"Hotspot Customs LLC",2013-11-21,"shopping",-83.6426788,41.0367329
1028,"ATM",2013-11-21,"default",28.8197932,40.9782372
1029,"Handmade",2013-11-21,"default",12.2510037,45.6694853
1030,"José Andrés Noguera",2013-11-22,"default",2.449914,41.5474358
1035,"Evans Jewelry and Pawn",2013-11-21,"default",-90.192157,36.3829848
1036,"Centerline Guitar Repair Shop",2013-11-21,"default",-75.9888373,40.9577916
1033,"HiperZ",2013-11-21,"default",11.6411251,45.4447582
1034,"Unique Mens Fashion - dystrybutor marki Thomas Waxx",2015-02-06,"default",16.8699974,52.4225607
1039,"Sara Jiang Studio",2013-11-21,"default",-99.712361,32.4749985
1040,"Barnard Law Offices, L.P.",2013-11-21,"default",-80.3154887,25.6805206
1037,"Loue la vie",2013-11-21,"transport",-73.7804732,45.5640186
1038,"SIMPLE COMPTABILITÉ INC.",2013-11-21,"default",-73.8424903,45.6177466
1042,"OMNI Expert Consulting, Inc.",2013-11-21,"default",-80.3639308,25.5907396
1041,"The Jane",2013-11-21,"nightlife",12.5757526,55.6800362
1489,"PatrickKirkby.com Photography",2013-12-03,"default",11.9379872,54.6028622
1021,"Dr. William Walter Labenek, DDS, Family Dentist",2013-11-20,"default",-76.193553,45.2278486
1001,"FlyInMySoup",2013-11-19,"default",19.9255696,50.0579841
9075,"KAMRAN CHATTHA",2016-12-30,"default",70.1044464111328,29.8197955486045
9076,"KAMRAN CHATTHA",2016-12-30,"default",72.9341125488281,31.7894698071205
9077,"KAMRAN CHATTHA",2016-12-30,"default",72.8166961669922,31.7696238669607
1046,"Biuro Rachunkowe Finesti",2013-11-21,"default",17.0318856,51.1018655
1048,"Mayberry Salon an Barber LLC",2013-11-27,"default",-119.8362759,39.5094514
1049,"Wellington Florist",2013-11-25,"shopping",-80.2682303,26.6640521
1050,"Scan-Slides",2013-11-22,"default",-122.387379,45.4915438
1059,"Euclid Friendly Computer Service",2013-11-22,"default",-81.5329869,41.587065
1051,"Mobilporta srl",2013-11-22,"default",10.0960779,44.0285408
1052,"UnixMedia",2013-11-22,"default",8.7433191,45.5883093
1053,"AssemblySys dataServices",2013-11-22,"default",-96.1329312,19.1665386
1054,"Michael Maurus Photography",2013-11-22,"default",-86.876522,20.8465427
1055,"Corozal Bay Resort - Belize",2013-11-22,"default",-88.3977939,18.380756
1056,"SecureInvestment.com",2013-11-22,"default",-79.5224392,8.9810735
16576,"TOZD bar",2018-12-17,"cafe",14.5061051845551,46.0468537561974
1058,"Tourismo Supremo",2013-11-22,"default",-66.8302528,10.4387022
1060,"ChicagoAnimation.com",2013-11-22,"default",-87.9727286,42.2292894
1063,"Bitcoin Trading Location (starbucks)",2013-11-22,"default",-117.7212939,33.5879147
1061,"YOSAPARK<U+795D><U+5712><U+897F><U+5E97>",2013-11-22,"default",135.7857496,34.7593012
1062,"Lunlun Zou Guzheng Studio",2013-11-22,"default",114.1977171,22.2918807
1066,"EchoDitto",2013-11-22,"default",-77.0369921,38.9045126
1065,"Peter Pan",2013-11-22,"shopping",11.4621507,45.7134444
1067,"EchoDitto",2013-11-22,"default",-71.122821,42.3962567
1071,"Super Machining Inc.",2013-11-22,"default",-117.9131775,33.7196669
1068,"Haciendas Palo Verde - Oceanview Masterplanned Community",2013-11-22,"default",-110.4400322,24.1150439
1069,"VJ Loops",2013-11-22,"default",-0.3857237,39.4727626
1070,"iDoktor NS - Apple prodaja i servis BTC LTC exchange",2013-11-25,"shopping",19.836452,45.252246
1073,"Tactical College Consulting",2013-11-23,"default",-76.7028193,39.4288906
1075,"Kattare Internet Services",2013-11-23,"default",-123.2769211,44.5107461
1076,"Kuk Sool Won of Pacifica",2013-11-23,"attraction",-122.5041301,37.5934535
1079,"The Ice Box: Authentic Shave Ice",2013-11-23,"default",-111.8582604,33.2382383
1078,"Bitcoiniacs - The Bitcoin Store",2013-11-23,"default",-119.493605,49.8920081
1081,"Byte Technology",2013-11-23,"default",-93.3268746,44.8617611
1080,"sport code - MAXIM",2013-11-23,"default",-73.5447825,45.5453556
1044,"LunarCannon",2013-11-21,"default",-73.2133254,44.4387444
1082,"fly men",2013-11-23,"default",14.3884516,45.3585539
1083,"digital euro partners",2013-11-23,"default",22.9038926,40.6669872
1084,"Cloudware",2013-11-23,"default",23.3727025,42.6557379
1086,"Netstudio",2013-11-23,"default",23.8547008,38.145562
1087,"Berry Advertising",2013-11-23,"default",23.8112419,38.0514433
1077,"The Bitcoin Store",2013-11-23,"default",-123.1412149,49.2701846
1091,"Opportunities",2013-11-23,"default",1.5435605,42.5113869
1092,"TukarKoin",2013-11-23,"atm",112.6315117,-7.2858035
1093,"GOLDHUUS",2013-11-23,"default",8.8594247,47.6591332
1094,"Schätzungsbüro Werner Betschart",2013-11-23,"default",8.8540817,47.186555
1095,"YAMPE GmbH",2013-11-23,"default",8.0597587,47.3406063
1097,"Peter M Studios & Photobooth",2013-11-23,"default",-101.867733,33.5788572
1103,"The Parlour Yoga Studio",2013-11-24,"default",-111.8856369,40.7617721
1098,"Stock Peluqueria",2013-11-23,"default",-5.9353202,37.4107399
1100,"FPITM",2013-11-24,"default",16.2054257,54.1913278
1102,"Tourist Apartment Accademia Quiet and New",2013-11-24,"default",12.3290575,45.4305648
1106,"Lucas Street Antiques",2013-11-25,"default",-96.8280238,32.8070146
1105,"BITS Systemhaus",2013-11-25,"shopping",10.7906007,49.3383288
1110,"I Support Computer",2013-11-25,"default",-117.9924109,33.8115251
1107,"L&H shirtzshop GmbH",2013-11-25,"default",12.00433,51.4834901
1108,"YourPrivateVPN",2013-11-25,"default",-43.1664632,-22.9620872
1109,"KITEZONE",2013-11-25,"default",4.8905624,52.4045745
1111,"T or C Eye Clinic",2013-11-25,"default",-107.2448465,33.1489213
1126,"Business In The Black",2013-11-25,"default",-96.6698956,33.0739771
1101,"Bryce & Brown Accounting Services",2013-11-24,"default",-79.4727591,43.6908478
1113,"Lahore Carpet Mfg Co.",2013-11-25,"default",74.1852685,31.3981042
1114,"Lieferservice",2013-11-25,"default",5.1431507,52.0779072
1115,"Eichenhain",2013-11-25,"default",9.3920817,51.5022771
1117,"L´ANFORA",2013-11-25,"default",10.5846242,52.2841126
1118,"DKV Agentur Landvogt",2013-11-25,"default",13.31612,52.46862
1119,"Onlineshopsiegel.de",2013-11-25,"default",11.8718287,48.4954691
1121,"Baby Natur Versand",2013-11-25,"default",10.0583176,53.5364116
1122,"Handicraft - Franz Gruber",2013-11-25,"default",10.3118837,53.9353662
1259,"Liljeholmens Kiropraktorklinik",2013-11-28,"default",18.0219065,59.3098057
1123,"Käserei / Molkerei Lustnau",2013-11-25,"default",8.7412018,46.9756697
1124,"eleganteDuefte (KUR)",2013-11-25,"default",13.6916339,51.0472713
1125,"Mother care Diagnostic Center",2013-11-25,"default",73.8782162,18.5714814
1127,"CreatiVentures Publishing",2013-11-25,"default",73.9162004,18.551584
1128,"Glanzfee",2013-11-25,"default",12.4858809,48.1968388
1129,"ottonormalo.de",2013-11-25,"default",6.7828796,51.2375268
1112,"Data Scientists",2013-11-25,"default",145.7760089,-16.9258024
1090,"Ferienhaus AB",2013-11-23,"lodging",12.1860429,47.5045405
8447,"Realiza GeoEngenharia",2016-08-15,"default",-54.6047008037567,-20.419487076086
1131,"Profident",2013-11-25,"default",20.6477313,50.8721134
1133,"DATARECOVERY",2013-11-25,"default",12.337388,51.3321799
1134,"DATARECOVERY Hamburg",2013-11-25,"default",9.9220979,53.5645119
1135,"Dr. Hingora's Homeopathic Clinic",2013-11-25,"default",81.6261837,21.2078927
1138,"Pirate Printing Company",2013-11-25,"default",-75.1773552,39.9393543
1137,"Przedluzanie i zageszczanie rzes",2013-11-25,"default",14.504999,53.3843786
1139,"Trading Volatility LLC",2013-11-25,"default",-122.4181336,37.7947048
1141,"SecKC (Information Security Group)",2013-11-25,"nightlife",-94.778551,38.9986843
1142,"Taylor Construction and Remodeling",2013-11-25,"default",-100.468233,39.117168
1143,"Trusted Defense",2013-11-25,"default",-94.8148019,39.010356
1144,"Jeremy Bufford, Design Services",2013-11-25,"default",-82.3420649,28.0477042
1145,"WISPRENN Internet Service",2013-11-25,"default",-117.1698372,34.5001453
1146,"Cystruct - Wireless Security and Bitcoin trader",2013-11-25,"default",-117.1698426,34.5000079
1149,"Butterfly Labs, Inc.",2013-11-25,"default",-94.636311,38.9335227
1147,"Nocleg Kostrzyn",2013-11-25,"lodging",14.6480358,52.5854933
1152,"Terminal Gravity Pub and Brewery",2013-11-28,"food",-117.2713718,45.4187654
1150,"Vantage Chartered Accountants and Auditors",2013-11-25,"default",18.4145984,-33.9104867
1151,"Taxpertise - Tax Consultants",2013-11-25,"default",18.4216661,-33.9168759
1154,"Visible HQ - SEO and Marketing",2013-11-25,"default",-111.8742232,40.764428
1153,"360 Media Google Business Photographer",2013-11-25,"default",-73.8619893,45.457466
1156,"Aerospace Robotics",2013-11-27,"default",-71.2661007,42.2896929
1164,"Sydney Paragliding",2013-11-26,"default",150.9970016,-34.2239921
1159,"Tahoe Tech Group",2013-11-26,"default",-120.0466423,39.2396947
1157,"Fullboar Creative",2013-11-26,"default",-123.120264,49.2754336
1160,"Misthub",2013-11-26,"default",-87.9376461,42.180707
1161,"Caerbannog Systems",2013-11-26,"default",-97.7435454,30.3825348
1163,"Fork Networking Inc",2013-11-26,"default",-122.6808304,45.5214864
1165,"Artisan Pizza & Pasta",2013-11-26,"food",-81.5200849,38.3175807
1166,"Atilus",2013-11-26,"default",-81.8089969,26.3415726
1171,"Sparx Innovations - A Junior Achievement Company",2013-11-26,"default",-114.070747,51.1125383
1168,"Indpendent Tattoo Inc.",2013-11-26,"default",-75.1129436,38.4711402
1169,"Digital Computer Works",2013-11-26,"shopping",-93.7613705,38.3661611
16577,"iDoktor",2018-12-17,"default",14.4894003868103,46.0362562819295
1170,"Matthew Amey",2013-11-26,"default",-75.1128567,38.4710212
1172,"Katorah Photo",2013-11-26,"default",-88.0715189,30.6871518
1490,"DVTGuard",2013-12-03,"default",-81.1059989,29.2469368
1136,"C and B Wireless",2013-11-25,"default",-95.3068654,29.7345029
1155,"Mountain Lotus",2013-11-25,"default",151.6669848,-30.5138166
1130,"WTS",2013-11-25,"default",11.4890036,50.7597719
8412,"Bitcoin ATM",2016-08-10,"atm",-77.4687141180038,37.6512341267422
1175,"Netis d.o.o.",2013-11-26,"default",14.5411486,46.0992579
1177,"Crypto Stick",2013-11-26,"default",9.774229,48.1023702
1178,"Evergreen",2013-11-26,"default",12.6074217,43.0745057
1179,"Bitzon.de / BG-Programming",2013-11-26,"default",12.4362094,50.9929098
1181,"Istasyon Eczanesi",2013-11-26,"default",29.9979641,40.1103276
1182,"SoftRare",2013-11-26,"default",6.8652796,52.2136302
1183,"Musikerprogramme",2013-11-26,"default",11.6336843,48.101796
1184,"chip45 GmbH & Co. KG",2013-11-26,"default",8.6638577,50.5267082
1185,"JOIX",2013-11-26,"default",8.4809792,49.496589
1186,"Firefly New Media UK",2013-11-26,"default",-1.8332572,54.8522778
1191,"Law 4 Small Business",2013-11-26,"default",-106.5342678,35.1899607
1189,"Burger Bear",2013-11-26,"food",-0.0834693,51.5261252
1190,"Enigma Advertising",2013-11-26,"default",32.4296419,34.7716884
1192,"Starkmuth Publishing",2013-11-26,"default",7.1510618,50.7244416
1193,"Level Up",2013-11-26,"default",-4.2838254,55.8639145
1194,"Masáže Radomír Navrátil",2013-11-27,"default",17.2273231,49.5932711
1195,"Aloha Network",2013-11-26,"default",-5.651374,43.5349424
1196,"Kit2Bike",2013-11-26,"default",-9.0797658,38.6614771
1197,"Smartlux GmbH",2013-11-26,"default",6.5124551,49.7597544
1198,"Freerein Riding Holidays",2013-11-26,"default",-3.1553975,52.0798675
1200,"Spark Digital Alchemy Web and Computer Services",2013-11-26,"default",-89.989966,35.1385589
1201,"Pier Bar",2013-11-26,"food",-86.8635037,30.3800983
1202,"La Te Dah Boutique",2013-11-26,"default",-86.8683812,30.4162959
1203,"Comrade Web Agency",2013-11-26,"default",-87.6491138,41.8952764
1204,"Vertical Horizon Management LLC",2013-11-26,"default",-91.1740293,30.3781276
1205,"Xtreme Care Body Shop",2013-11-26,"shopping",-80.3981071,25.6488749
1206,"Elichai Fine Jewelry",2013-11-27,"shopping",-108.5109435,45.7851733
1207,"Elichai Fine Jewelry",2013-11-27,"shopping",-110.5603291,45.6618993
1209,"MyUSACorporation.com",2013-11-26,"default",-74.0105097,40.7055845
1208,"Löbel & González",2013-11-26,"default",2.1511364,41.396362
1213,"Heatsync Labs",2013-11-26,"default",-111.835604,33.4153234
1210,"Natural Flow",2013-11-26,"default",0.4765606,50.8397175
1211,"David Savill Photography",2013-11-26,"default",-2.0805879,51.8968813
1219,"Film Generator",2013-11-27,"default",145.7755427,-16.9206374
1214,"Gaussboys Super Magnets",2013-11-26,"default",-122.8878288,46.5144355
1216,"Photo Booth Rentals of New Mexico",2013-11-26,"default",-106.7155131,35.1731394
16517,"Groente & Fruitkraam",2018-12-07,"shopping",5.89731931686401,51.9587065511912
1188,"Cryptocoin Stuff!",2013-11-26,"default",-82.3787227,28.5700456
1174,"CTG Security Solutions",2013-11-26,"default",74.9088107,31.6441124
8724,"curtidos/twistab",2016-10-28,"default",2.1647036075592,41.3802742953635
1220,"Ultraventus - Digital Media Service",2013-11-27,"default",145.7754959,-16.9206257
1258,"Bridget Bunchy",2013-11-27,"default",151.9491241,-28.5725528
1222,"Las Palmas Restaurant Bar",2013-12-02,"food",-74.2163567,40.667769
1224,"Nisswa Cabin",2013-11-27,"default",-94.3204872,46.5292755
1225,"brio jewelry",2013-11-27,"shopping",-111.9401666,33.4259748
1226,"HostWanted.com",2013-11-27,"default",-118.2564091,34.0474283
1230,"German Silicon Valley Accelerator",2013-11-27,"default",-122.1564643,37.4507752
1227,"Restavracija Allegria",2013-11-27,"food",14.5048333,46.0528312
1228,"Pizzeria Osmica",2013-11-27,"food",14.504733,46.0526711
1229,"KJP Images",2013-11-27,"default",-3.0643488,53.3995995
1231,"Melchar, Bowie & Brockdorf P.A.",2013-11-27,"default",-82.3384118,29.6784124
1235,"Milton Acupuncture",2013-11-27,"default",-71.0675595,42.2698948
1232,"Kibbutznikim",2013-11-27,"default",34.9484564,31.8102484
1233,"Enrico Secci Design Studio",2013-11-27,"default",12.4286777,41.8352395
1234,"Novezeri adv",2013-11-27,"default",14.2159788,40.9788491
1236,"Repaz Marketing",2013-11-27,"default",-74.2290962,40.3998465
1237,"DG Interactive",2013-11-27,"default",-73.984989,40.7447614
1241,"Mill Creek Community Church",2013-11-27,"default",-94.8478408,38.9805498
1239,"Manaus Booking Travel Agency, Jungle Tours, River Cruises",2013-11-27,"default",-60.0214427,-3.1299609
1240,"Pametna Poslovna Rješenja",2013-12-09,"default",15.9767375,45.772851
1242,"Jessie's Radiator & Automotive",2013-11-27,"shopping",-119.2850983,34.2772548
1243,"HuB Create Space and Community",2013-11-27,"default",-82.536772,27.3387011
1244,"Vanity Cosmetic Surgery",2013-11-27,"default",-80.3171312,25.866601
1245,"Vanity Cosmetic Surgery",2013-11-27,"default",-80.2574741,26.1479168
1247,"Advance Disposal Inc. - Dumpster Rental",2013-11-27,"default",-121.352545,38.5340925
1248,"Bitcoin Solutions",2013-11-27,"default",-77.0418924,38.9059129
1251,"El Departamento de la Comida",2013-11-27,"food",-66.0790317,18.4478062
1249,"AltusHost B.V.",2013-11-27,"default",4.746292,52.2801839
1250,"EVALinux",2013-11-27,"default",-103.3636164,20.6860269
1252,"Peace n' Loaf",2013-11-27,"food",-66.08703,18.398357
1253,"MELD Workshop",2013-11-27,"default",-96.8280109,46.8766832
1257,"Oxbridge House",2013-11-27,"default",-122.4235389,37.7951834
1254,"SOFTWeb - Adaptive I.T. Solutions",2013-11-27,"default",22.9665613,40.5903974
1255,"DaftHost.com",2013-11-27,"default",14.5351529,53.4199797
1256,"Gabinet fizjoterapii i masazu POLA",2013-11-27,"default",21.0150006,50.0194982
1218,"Prinnnt",2013-11-27,"default",-79.3911417,43.6527221
1221,"Parts Oven",2013-11-27,"default",-120.6887,35.6287343
8413,"Hard To Find Beauty",2016-08-11,"shopping",-122.372975349426,45.5857375742371
1264,"Ruby Peak Naturals",2013-11-28,"default",-117.2777614,45.4211018
1265,"Green Valley Farm",2013-11-28,"default",-117.271222,45.4170005
1266,"UngerTech Computer Repair and Web Design",2013-11-28,"default",-121.0576296,39.229701
1268,"Jonathan Lefkowitz Attorney at Law",2013-11-28,"default",-73.9848909,40.7284751
1267,"RC-Thomas",2013-11-28,"default",8.3155809,47.5709489
1269,"fdcincshop",2013-11-28,"shopping",-73.9801825,40.7141409
1277,"Protek computer repairs",2013-12-05,"shopping",-74.4294411,40.6219432
1270,"ManeAntu joyeria",2013-11-29,"shopping",-84.0327069,9.9389087
1271,"MaxPictures Photography",2013-11-28,"default",-0.2017651,51.5125415
1272,"Dark Stone Bromelias Practice Center",2013-11-28,"lodging",-41.2701467,-20.2277117
1273,"mika amaro - Urban Bikes, Fahrräder",2013-11-28,"shopping",6.9572049,50.9220684
1274,"Katrin Probst Photography",2013-11-28,"default",8.6873058,50.1043445
1275,"Pollen Video: Development, Production and Post",2013-11-28,"default",-0.0682649,51.5256078
1276,"Studio legale",2013-11-28,"default",12.0837095,45.1354272
1288,"AmeriCam",2013-11-28,"default",-112.2006341,33.5422659
1278,"Superbithost.com - Offshore Hosting solutions",2013-12-10,"default",23.3594738,42.6504203
1279,"Pheasant Pub",2013-11-28,"nightlife",-6.3495776,53.7096977
1280,"Origami + Art",2013-11-28,"attraction",-76.5328557,3.3754421
1281,"Geschenke, Skulpturen",2013-11-28,"default",-99.0484602,19.4644361
1282,"Fundacion Bitcoin México",2013-11-28,"default",-99.1636016,19.386924
1283,"Taxi Oviedo",2013-11-28,"transport",-5.8480922,43.3619351
1285,"Englisch Tutor",2013-11-28,"default",-2.9120547,43.2508948
1286,"Ercilla Abogados",2013-11-28,"default",-2.9321668,43.2641863
1287,"Online bei Programm-Management",2013-11-28,"default",-1.6646163,42.8329415
1292,"BKLTD.co",2013-11-28,"default",-73.9877715,40.7446507
1289,"Librería Dinova",2013-11-28,"shopping",-70.6145976,-33.5194834
1263,"Wild Carrot Herbals",2013-11-28,"default",-117.2784266,45.4253789
1291,"Emdyp",2013-11-28,"default",-70.3999844,-23.6500246
1293,"Credit Repair Services",2013-11-28,"default",-117.5903263,34.107001
1261,"Survival Dump",2013-11-28,"default",-72.8738763,44.5839895
1294,"BITCOIN COMMUNICATION",2013-11-28,"default",-8.0069817,31.6309527
1296,"Gold 4 Bitcoins Ltd",2013-11-28,"default",-0.2489237,51.4735403
1301,"The Ignite Project",2013-12-05,"default",-84.5014611,38.0622767
1297,"My Taste",2013-11-29,"food",23.3052991,42.6977145
1298,"Neolinx Pvt. Ltd",2013-11-28,"default",85.3129289,27.6720115
1299,"Mooz",2013-11-28,"default",34.7752565,32.0754172
1300,"Galbi Restaurant",2013-11-28,"food",34.7662789,32.0684618
1303,"212ths",2013-12-05,"default",-84.5015013,38.0622715
1304,"Brann Insurance",2013-11-28,"default",-97.2875652,27.668656
1396,"East Park Chiropractic",2013-12-01,"default",-73.643181,40.5884104
1305,"ArTrope",2013-11-28,"default",2.9350099,51.2303819
1290,"Saucal",2013-11-28,"default",-114.0700395,51.0004905
9078,"KAMRAN CHATTHA",2016-12-30,"default",72.7351570129395,31.7157557162796
14686,"OOSEOO Internetmarketing",2018-08-21,"default",5.41088461875916,52.1898088090205
1316,"Electron Workshop",2013-11-29,"default",144.9507089,-37.8011806
1312,"Villa Giardino di Limoni",2013-11-28,"default",15.1093912,36.8563536
1313,"Casale della Pergola",2013-11-28,"default",15.1095853,36.8566841
1314,"Guest Home Galilei",2013-11-29,"lodging",15.1351396,36.9123538
1315,"Herbert Harrison and Associates",2013-11-29,"default",176.87823,-39.6676145
1327,"MILLER Performance car parts",2013-11-29,"default",-122.2220308,49.041511
1317,"EIGER",2013-11-29,"default",121.545146,25.0382358
1319,"GoodWorldGhana",2013-11-29,"default",-1.6876391,6.6118617
1320,"Viajes Turigrino",2013-11-29,"default",-5.5671501,42.5987517
1321,"Carnes selectas Diez Vivar",2013-11-29,"grocery",-3.6715376,42.3486372
1322,"La Pantera Negra",2013-11-29,"shopping",2.2857661,41.6864401
1323,"Tollodaris",2013-11-29,"shopping",2.1432683,41.3931363
1324,"Trabajos de diseño gráfico",2013-11-29,"attraction",2.1575275,41.3864435
1325,"Barcelona Charter – Alquiler de Veleros",2013-11-29,"default",2.2009081,41.3859291
1326,"Naturhouse Viladecans",2013-11-29,"default",2.0172368,41.3154682
1308,"Capital Coin and Bullion",2013-11-28,"default",-97.735742,30.348937
1328,"Lagar La Primilla",2013-11-29,"grocery",-4.5542913,37.5536681
1329,"brássino - das Olivenöl",2013-11-29,"default",15.7335631,47.0396095
1330,"ZAS",2013-11-29,"default",-5.6079229,36.0174219
1331,"Matthew Epps, Traditional Chinese Medecine",2013-11-29,"default",6.2382074,46.3823626
1334,"Jeffersons Apparel & Accessories",2013-11-29,"default",-73.9992769,40.9279389
1333,"Designsmurf",2013-11-29,"default",5.292383,51.6785787
1344,"PC Strikeforce LLC",2013-11-29,"default",-72.5005542,41.7495194
1335,"Indie Cave - Music Bar",2013-11-29,"nightlife",-74.0627223,4.6451645
1336,"EsferaRed",2013-11-29,"default",-3.8674154,40.4686656
1337,"Bitcoin Suramerica",2013-12-05,"default",-74.1370124,4.7056959
1338,"Abanlex – Derecho Tecnológico",2013-11-29,"default",-3.6834569,40.4362496
1339,"El Hogar del Fresno",2013-11-29,"lodging",-3.7677583,41.105064
16592,"Central Caffe",2018-12-19,"cafe",15.6509149074554,46.5600922889734
1341,"Francisco Cotano – Pintor",2013-11-29,"default",1.1068579,41.1511411
1342,"Sky Parking",2013-11-29,"transport",14.2770094,50.1367424
1343,"Ventanas JMGarcia",2013-11-29,"default",-8.7150841,42.2337626
1347,"Radix Media",2013-11-29,"default",-96.0050261,36.7450227
1345,"Netsprig Foundation",2013-11-29,"default",23.1560071,53.1334225
1346,"AVC (Classic Woodworkers) LTD",2013-11-29,"default",-2.2139715,53.0668041
1348,"Victoria Mitzel - Makeup Artist",2013-11-29,"shopping",34.883343,32.0883968
1349,"Clothes Agency",2013-11-29,"shopping",0.5443797,51.3846484
1309,"Art Gallery",2013-11-28,"default",145.4045565,-37.898007
1307,"Urbain Tunnels",2013-11-28,"default",0.5415449,51.2801377
8414,"Vape Club International",2016-08-11,"default",101.629843711853,3.13425985486365
1393,"Bar No.7",2013-12-01,"nightlife",14.4149572,50.0796596
8863,"V2K NET",2016-11-21,"shopping",79.8611855506897,6.94709375722799
9005,"FaxCoin",2016-12-21,"shopping",30.5244183540344,50.4609259857974
1352,"Oasis Apartments - Tenerife - Spain",2013-11-29,"lodging",-16.7262371,28.0813499
1355,"The Jewelry Vault & Loan",2013-11-29,"shopping",-116.5470962,33.8332338
1356,"I Found",2013-11-29,"shopping",-116.5470967,33.8334033
1358,"Beanstalk Web Solutions",2013-11-29,"default",-90.3562785,38.5923501
1357,"Bucarelli",2013-11-29,"shopping",-3.6727454,40.4272924
1360,"Innovative Digital Design",2013-11-30,"default",-81.0236573,34.8696225
1387,"FLUXX ENTERPRISES - GRAPHIC DESIGN",2013-11-30,"default",150.5639883,-33.7000738
1362,"Orgonix23",2013-12-03,"default",-121.0445859,39.2326485
1361,"Growhaus Growshop",2013-11-30,"default",8.6074957,48.8922335
1365,"Village on the Parkway",2013-11-30,"default",-111.723605,40.274733
1366,"Station 22 Cafe",2013-11-30,"food",-111.659247,40.2339367
1368,"Superior Wireless",2013-11-30,"default",-105.0248205,39.7069888
1369,"Got Your Web Design",2013-11-30,"default",-105.0816485,40.549474
1383,"Birth Services",2013-11-30,"default",-97.3301693,32.748511
1370,"Direct Voltage",2013-11-30,"default",-98.7357371,37.6427219
1371,"0011 s.r.o.",2013-11-30,"default",17.1103149,48.1561701
1372,"Crypto Hosting",2013-11-30,"default",-0.3590453,39.4874444
1373,"440 Mastering",2013-11-30,"default",-3.5063436,40.5978849
1374,"<U+043A><U+041E><U+043D><U+0446><U+0435><U+043F><U+0442>",2013-11-30,"shopping",37.5772172,55.8126584
1375,"RaymundMedia",2013-11-30,"default",7.5678606,51.0277219
1376,"No13",2013-11-30,"shopping",4.3591132,52.0111159
1378,"FotoGrafic gallery",2013-11-30,"default",14.4149389,50.0847116
1379,"Krejzi",2013-11-30,"default",14.2948589,45.6658443
1380,"ServerAstra.com",2013-11-30,"default",19.1026909,47.4933362
1381,"<U+05E2><U+05D5>""<U+05D3> <U+05E2><U+05D9><U+05E0><U+05EA> <U+05DB><U+05D4><U+05DF>",2013-11-30,"default",34.5887443,31.6615377
1382,"ProteusLab",2013-11-30,"default",14.2089087,45.7759391
1385,"createTank",2013-11-30,"default",-80.1953699,39.422185
1384,"Green Admin IT",2013-11-30,"default",8.491093,52.0002304
1388,"Elizabeth Crow Photography",2013-12-01,"default",-123.2214465,44.2224617
1386,"ikarus mental aritmetik",2013-11-30,"attraction",27.116332,38.4553778
1389,"The Flying Pig",2014-11-24,"food",-82.653933,27.770863
1394,"Bert Green Fine Art",2013-12-01,"default",-87.6247089,41.8819299
1390,"Gerai Dinar Bandung",2013-12-05,"default",107.603873,-6.8881557
1353,"Fullbloom Hydroponics",2013-11-29,"shopping",-122.7052138,42.2005307
1392,"?",2013-12-01,"default",7.4552927,47.0356837
1395,"Yassu Tour Uzbekistan Travel agency",2013-12-05,"default",66.9275184,39.6674593
1359,"Wig Me Australia",2013-11-29,"default",151.0363988,-34.0548039
1351,"ENERGOHOUSE",2013-11-29,"default",-16.6064673,28.0538419
8285,"Bitcoin ATM / BitcoMAT",2016-07-02,"atm",13.3816695213318,49.7382725447885
1400,"OWMC",2013-12-02,"default",-0.0990671,51.5665262
1404,"Dr. Rory Smith, Optometrist",2013-12-03,"default",-87.0601859,35.2020289
1402,"Electrical service ""Voltage""",2013-12-02,"shopping",88.2217801,69.3319334
1407,"Car Code",2013-12-02,"default",-90.4847258,38.783194
1440,"Aurora Digitalis",2013-12-05,"default",-123.0967646,49.2667256
1418,"Tri-County Sports Center",2013-12-02,"sports",-90.9307952,38.9506307
1408,"Hong Kong Massage",2013-12-02,"default",114.1785834,22.2998179
1409,"PRIMERCIAL",2013-12-02,"default",114.1565079,22.283394
1410,"Jabonatura",2013-12-02,"default",-4.009593,40.2872668
1411,"SociaBol",2013-12-02,"cafe",5.121537,52.0871649
1413,"Hr-WebDesign",2013-12-02,"default",18.6160218,45.2742292
1414,"FlashInformatik",2013-12-02,"default",3.658297,43.403452
1421,"Quadric Software, Inc.",2013-12-05,"default",-73.1842994,44.5027584
1417,"La Maison des Livres",2013-12-02,"lodging",15.6383932,38.1023283
1420,"On Location Group",2013-12-02,"default",-118.241977,34.0606566
1425,"AdRite Solutions",2013-12-02,"default",-74.0234919,40.7898938
1423,"Hop Frog ::: libera associazione",2013-12-02,"default",14.9685016,40.6145901
1424,"Rag Legend",2013-12-02,"default",-104.6626667,24.0232111
1433,"Double Tap",2013-12-02,"default",-76.1844886,36.8831821
1439,"Sprayable Energy",2013-12-03,"default",-115.2169923,36.123394
1428,"mindzai",2013-12-02,"shopping",-79.3966275,43.6472664
1429,"OZ Health Shop",2013-12-02,"default",-84.3466381,33.7583378
1430,"Pimoroni Ltd",2013-12-02,"default",-1.4747699,53.3920611
1431,"The Dog is Hot",2013-12-05,"food",2.1654719,41.3827983
1432,"Bioque",2013-12-02,"default",-0.0839382,51.5256367
1434,"Patagonia Trails. More Adventourous People",2013-12-02,"attraction",-72.8428849,-41.4776736
1435,"Gold Rhino",2013-12-02,"default",28.2548397,-25.7712728
1436,"Pallas Moda Íntima",2013-12-03,"shopping",-46.6242717,-23.4887024
1437,"Pallas Moda Feminina",2013-12-03,"shopping",-46.5931286,-23.4867784
1438,"Moongate",2013-12-03,"shopping",-60.5128305,-31.7258119
1441,"Hfour",2013-12-03,"default",-123.096711,49.2666976
1401,"BitBoating",2013-12-02,"default",-118.2833793,33.7232868
1442,"Bookshop",2013-12-03,"shopping",-0.6546713,52.3388853
1405,"Ethical Bean Coffee",2013-12-02,"default",-123.0264445,49.2726665
1399,"AlvaroLara.com",2013-12-01,"default",-3.7026518,42.335899
1478,"CKSoftware Inc.",2013-12-03,"default",-113.4988643,53.5374604
1451,"S2 Entertainment Company (S2e)",2013-12-03,"default",-73.97758,40.7596269
1449,"SwimOuts Butik",2013-12-03,"default",12.5799785,55.7416792
1450,"Vision Optika",2013-12-03,"default",16.438259,43.5092163
1457,"Ben R Shull CPA LLC",2013-12-03,"default",-95.779518,29.7758015
1453,"MADE Makerspace",2013-12-03,"default",2.1543006,41.3827248
1454,"Cosmetic",2013-12-03,"default",120.3314921,22.6280359
1455,"Nordorthopaedics clinic",2014-02-16,"default",25.2825421,54.6803382
1456,"David Goode Sculpture Ltd",2013-12-03,"attraction",-1.2377366,51.7335728
1458,"American Home & Habitat Inc.",2013-12-03,"default",-96.1571874,29.7806769
1459,"Maxraiders General Cleaning",2013-12-03,"default",-88.0902513,30.6659672
1461,"Altman and Associates, PLLC",2013-12-03,"default",-83.6127539,42.2440463
1460,"Capitalmind - Bitcoin Trading",2013-12-03,"default",0.0092052,51.7879949
1463,"Cloudy Sky Leatherworks",2013-12-03,"default",-80.4299804,37.2412882
1462,"the legacy of kashmir",2013-12-03,"default",74.7630145,34.0960717
1466,"Completely Royal",2013-12-03,"default",-83.3671331,40.2366082
1464,"Softalk Computer Services",2013-12-03,"default",-0.9436223,53.3237027
1465,"Hooked Cabarete Surfcamp",2013-12-03,"lodging",-70.447397,19.7767612
1468,"Green and White Wellness Center",2013-12-03,"default",-74.3008527,40.6351427
1467,"Rextronics Computer Repairs (Mobile Service)",2013-12-03,"default",-3.4724412,50.9002212
1472,"Ortega Cigars",2013-12-03,"default",-80.2876248,26.1832706
1469,"Radiobomb Studios",2013-12-03,"default",0.7006726,44.6444524
1470,"Sol Studio <U+05E1><U+05D8><U+05D5><U+05D3><U+05D9><U+05D5> <U+05E1><U+05D5><U+05DC>",2013-12-03,"default",35.214764,31.7791421
1471,"quad Lock",2013-12-03,"default",145.097632,-37.8944371
1473,"Asphalt Sealing Parking Lot Painting by Campbell Works",2013-12-03,"default",-75.6716997,39.4633762
1475,"Koch Architecture LLC",2013-12-03,"default",-122.6542276,45.5230777
1482,"Acupuncture Ecology",2013-12-03,"default",-123.2643957,44.5594104
1476,"Pyramid Valley Vineyards",2013-12-03,"default",172.6117163,-42.9645487
1477,"A Palhota Galé (Rental Vila)",2013-12-03,"default",-8.3165447,37.0811903
1486,"Bryant Electric Inc",2013-12-05,"default",-79.5970792,43.5909361
1479,"Janet Conduipro École de Conduite",2013-12-03,"default",-75.718096,45.4711454
1480,"AcaCondos",2013-12-03,"default",-99.8647061,16.8560719
1481,"Las Torres Gemelas Private Suites",2013-12-03,"default",-99.8651875,16.8562092
1484,"Lurings",2013-12-05,"default",-118.4694164,34.0638259
1483,"San Pedro Water Sports",2013-12-03,"default",-87.9620722,17.9181111
1485,"Outland Java Company",2013-12-03,"cafe",-122.4028996,37.4870967
1487,"EcoBox",2014-09-11,"default",-97.7119735,30.3852358
1448,"Real Four Leaf Clover",2013-12-03,"default",-114.1627982,47.6943151
1488,"EcoBox",2014-07-12,"default",-98.4193203,29.4561384
1444,"Castle Bloom",2013-12-03,"default",76.7551396,30.7340276
8415,"Athena Bitcoin ATM - Levs Pawn Shop",2016-08-11,"atm",-80.1454997062683,26.0113148025525
1494,"Millington Family Dentistry",2013-12-03,"default",-89.8978521,35.339182
1493,"NGO Vakanala, baobab  seeds sell for reforestation fundraising",2013-12-03,"default",47.5325126,-18.9234222
1496,"Johnsbay Flooring Company/Prosource",2013-12-04,"shopping",-76.2404823,36.7860026
1499,"Encryptomatic.Com",2013-12-04,"default",-96.0122436,46.8078387
1498,"W <U+B0B4><U+C2E0> <U+C218><U+B2A5> <U+D559><U+C6D0>",2013-12-04,"default",127.0876533,37.5119124
1501,"Gearforms: Induustrial Americana & Salvage Co.",2013-12-04,"default",-75.1285025,39.9816027
1503,"Stone Pros Custom Marble & Granite",2013-12-04,"default",-75.3903709,39.8468758
1505,"BOSS Printing",2013-12-04,"default",-95.727464,29.7897129
1504,"Kereru Brewing Company, LTD.",2013-12-04,"default",175.0722568,-41.1298645
1507,"Wojo Photography",2013-12-04,"default",-75.1266697,39.9826161
1508,"Sum Pig Food Truck",2013-12-04,"food",-75.1742679,39.8963835
1509,"Leeds United Construction",2013-12-04,"default",-73.9669623,40.7607161
1510,"Dr. Steven Schram",2013-12-05,"default",-73.9819203,40.7423048
1511,"Bitcoin Soda Machine",2013-12-04,"default",-90.2575093,39.7372704
1512,"Y.E.A.H. Clinic",2013-12-05,"default",-122.4037065,37.7956032
1523,"GreenArrays, Inc.",2013-12-04,"default",-104.8060079,41.1385183
1528,"Liquid Diving Adventures",2013-12-04,"default",-108.5463482,39.0893666
1513,"Tremendis Learning",2013-12-05,"default",28.0991607,-25.9946532
1514,"Paul van Oss - Photography",2013-12-04,"default",-3.5886135,36.9655077
1515,"BitKonan",2013-12-04,"default",16.450717,43.5166165
1517,"Reconstructa",2013-12-04,"default",21.2774977,48.9740322
1518,"Ardeco - Namještaj po mjeri - Stolarija",2013-12-04,"default",16.4841502,43.5098835
1519,"Marks Computer Clinic",2013-12-08,"default",-1.5291628,53.8191274
1520,"500Tech",2013-12-04,"default",34.8215234,32.0959358
1521,"Serrula Research",2013-12-04,"default",-0.0766621,51.5219452
1522,"Korepetycje (Matematyka,Fyzyka) - Szczepan Lagiewka",2013-12-04,"default",18.6348878,52.2052964
1529,"Advanced Lumonics, LLC EarthLED Division",2013-12-04,"default",-105.2162684,39.7530194
1524,"Lindau tejidos.",2013-12-08,"default",-3.0085259,43.3544816
1525,"Syncimage Corporation",2013-12-04,"default",139.7340202,35.6734112
1526,"World A.B.S",2013-12-04,"default",9.073189,47.3613981
1492,"nybemotion photography",2013-12-03,"default",-118.3544887,34.0857925
1532,"CoinNEO",2013-12-04,"default",-81.565511,41.5011844
1533,"Short Circuited Computer Services",2014-05-21,"default",-73.9113657,40.6942408
1530,"DIT Planet",2013-12-04,"default",67.0178298,24.8606987
1531,"UnikStuff",2013-12-04,"default",-8.8654729,39.7540403
1534,"Fantasy Jocks",2013-12-04,"default",-117.1776164,32.8199448
1491,"Glasnost Precious Metals",2013-12-03,"default",-73.9886638,40.7275685
1535,"L’ARMOIRE CHIC Ltd.",2013-12-04,"shopping",-0.1430794,51.5135613
1527,"Herbal Infusions Tea Co.",2013-12-04,"default",-79.4412312,43.6782314
1538,"rav3n_pl",2013-12-04,"default",15.2752564,52.7943187
1539,"Calmo d.o.o.",2013-12-04,"default",14.5029954,46.0934004
1580,"CDC Computers / MicroMedics",2013-12-05,"default",-97.207933,49.8950267
1544,"ABAK Funding - Bitcoin",2013-12-05,"default",-97.6903127,32.4581734
1546,"Valencia Vet-Co, Los Lunas",2013-12-04,"default",-106.7033227,34.8066127
1549,"Studio Memories (Photography)",2013-12-04,"default",-121.9497179,37.3531075
1547,"AUXO S.A.S",2013-12-04,"default",-74.055665,4.6705903
1548,"SA-Link Software",2013-12-04,"default",73.1811551,22.3073537
1550,"Vanderkamp Center",2013-12-04,"lodging",-75.8964713,43.2586171
1552,"GSM Nation LLC",2013-12-04,"default",-122.2057536,47.6550623
1551,"Rosedale Livery Limited",2013-12-04,"default",-79.6259714,43.7152771
1554,"Lamborghini Newport Beach",2013-12-04,"shopping",-117.9173251,33.6797269
1553,"Avocado Store",2013-12-04,"default",9.9614947,53.5569591
1559,"Datagonia Web Solutions",2013-12-05,"default",-117.252969,32.7959815
1560,"Ausign Signage",2013-12-05,"default",144.9967998,-37.8000991
1556,"Date-Mash",2013-12-05,"default",72.9026605,19.1057533
1557,"3D-Vizual",2013-12-05,"default",12.4863919,55.9245071
1558,"Irish Pub Kreuzlingen",2013-12-04,"food",9.1940089,47.6401196
1562,"TriTech Computer Consulting",2013-12-05,"default",-74.0340663,40.7380873
1568,"UndieGuys",2013-12-05,"default",145.0120841,-37.7461938
1561,"Harilo.com",2013-12-05,"default",85.3150124,27.7100766
1565,"The Concoctory",2013-12-05,"default",-104.9877713,39.6825266
1563,"Xtreme Pro Paintball Guns",2013-12-05,"default",19.8937506,-34.4764133
1564,"T-ERRE Turismo Responsabile",2013-12-05,"default",11.8998992,44.2845315
1574,"filmanthropos",2013-12-05,"default",-118.235325,34.0445437
1566,"Interfaceways AB",2013-12-05,"default",11.9474678,57.6996367
